Stations = [{"id":"9008102","lat":52.539891,"lng":13.370393,"name":"U Reinickendorfer Str."},{"id":"9008101","lat":52.544745,"lng":13.378717,"name":"S Humboldthain"},{"id":"9170004","lat":52.570175,"lng":13.565729,"name":"S Ahrensfelde Bhf"},{"id":"9170005","lat":52.534749,"lng":13.536001,"name":"S Poelchaustr."},{"id":"9170002","lat":52.55075,"lng":13.548388,"name":"S Raoul-Wallenberg-Str."},{"id":"9170003","lat":52.557815,"lng":13.554384,"name":"S Mehrower Allee"},{"id":"9035101","lat":52.537023,"lng":13.273319,"name":"U Siemensdamm"},{"id":"9170001","lat":52.542848,"lng":13.541916,"name":"S Marzahn"},{"id":"9100009","lat":52.530668,"lng":13.382924,"name":"U Zinnowitzer Str."},{"id":"9100008","lat":52.510855,"lng":13.416166,"name":"U Heinrich-Heine-Str."},{"id":"9045102","lat":52.479447,"lng":13.311837,"name":"S+U Heidelberger Platz"},{"id":"9320026","lat":52.516168,"lng":13.649409,"name":"S Birkenstein"},{"id":"9151001","lat":52.573268,"lng":13.504233,"name":"S Wartenberg"},{"id":"9034101","lat":52.538102,"lng":13.248589,"name":"U Paulsternstr."},{"id":"9100001","lat":52.520132,"lng":13.388012,"name":"S+U Friedrichstr. Bhf"},{"id":"9100003","lat":52.521148,"lng":13.412831,"name":"S+U Alexanderplatz Bhf"},{"id":"9100002","lat":52.522263,"lng":13.402547,"name":"S Hackescher Markt"},{"id":"9083201","lat":52.415615,"lng":13.496727,"name":"U Rudow"},{"id":"9100004","lat":52.515503,"lng":13.418027,"name":"S+U Jannowitzbrücke"},{"id":"9100007","lat":52.525157,"lng":13.393064,"name":"S Oranienburger Str."},{"id":"9068301","lat":52.447167,"lng":13.360595,"name":"S Attilastr."},{"id":"9120025","lat":52.516851,"lng":13.443278,"name":"U Weberwiese"},{"id":"9050201","lat":52.442618,"lng":13.240355,"name":"U Krumme Lanke"},{"id":"9054104","lat":52.479807,"lng":13.352846,"name":"S Schöneberg"},{"id":"9054105","lat":52.478099,"lng":13.342868,"name":"S+U Innsbrucker Platz"},{"id":"9054102","lat":52.490845,"lng":13.360909,"name":"U Kleistpark"},{"id":"9054103","lat":52.489524,"lng":13.350275,"name":"U Eisenacher Str."},{"id":"9054101","lat":52.483331,"lng":13.341987,"name":"U Rathaus Schöneberg"},{"id":"9171001","lat":52.513229,"lng":13.556793,"name":"S Biesdorf"},{"id":"9110012","lat":52.524195,"lng":13.464879,"name":"S Storkower Str."},{"id":"9110011","lat":52.555028,"lng":13.397846,"name":"S Bornholmer Str."},{"id":"9171002","lat":52.51375,"lng":13.520036,"name":"S Friedrichsfelde Ost"},{"id":"9171005","lat":52.49952,"lng":13.547319,"name":"U Biesdorf-Süd"},{"id":"9245027","lat":52.337651,"lng":13.416022,"name":"S Blankenfelde (TF) Bhf"},{"id":"9171006","lat":52.505965,"lng":13.561746,"name":"U Elsterwerdaer Platz"},{"id":"9033101","lat":52.537517,"lng":13.217621,"name":"U Zitadelle"},{"id":"9130001","lat":52.578203,"lng":13.42956,"name":"S Pankow-Heinersdorf"},{"id":"9023203","lat":52.503763,"lng":13.331416,"name":"U Kurfürstendamm"},{"id":"9023202","lat":52.500554,"lng":13.336764,"name":"U Augsburger Str."},{"id":"9160005","lat":52.512213,"lng":13.489437,"name":"U Magdalenenstr."},{"id":"9160004","lat":52.510532,"lng":13.499056,"name":"S+U Lichtenberg Bhf"},{"id":"9160003","lat":52.503439,"lng":13.484295,"name":"S Nöldnerplatz"},{"id":"9160002","lat":52.493956,"lng":13.4975,"name":"S Betriebsbahnhof Rummelsburg"},{"id":"9160001","lat":52.501075,"lng":13.478848,"name":"S Rummelsburg"},{"id":"9100016","lat":52.528187,"lng":13.410404,"name":"U Rosa-Luxemburg-Platz"},{"id":"9100017","lat":52.520312,"lng":13.421892,"name":"U Schillingstr."},{"id":"9100014","lat":52.511835,"lng":13.409874,"name":"U Märkisches Museum"},{"id":"9100015","lat":52.51784,"lng":13.411546,"name":"U Klosterstr."},{"id":"9100012","lat":52.513363,"lng":13.395338,"name":"U Hausvogteiplatz"},{"id":"9100013","lat":52.511305,"lng":13.40235,"name":"U Spittelmarkt"},{"id":"9100010","lat":52.511521,"lng":13.383796,"name":"U Mohrenstr."},{"id":"9100011","lat":52.511494,"lng":13.389711,"name":"U Stadtmitte"},{"id":"9191002","lat":52.478827,"lng":13.473985,"name":"S Plänterwald"},{"id":"9191001","lat":52.467581,"lng":13.4895,"name":"S Baumschulenweg"},{"id":"9200013","lat":52.653892,"lng":13.387832,"name":"S Mühlenbeck-Mönchmühle"},{"id":"9200012","lat":52.664634,"lng":13.33849,"name":"S Schönfließ"},{"id":"9200011","lat":52.669695,"lng":13.321447,"name":"S Bergfelde"},{"id":"9100019","lat":52.52567,"lng":13.387922,"name":"U Oranienburger Tor"},{"id":"9180001","lat":52.458457,"lng":13.580165,"name":"S Köpenick"},{"id":"9120003","lat":52.502846,"lng":13.469086,"name":"S Ostkreuz"},{"id":"9180002","lat":52.469056,"lng":13.553521,"name":"S Wuhlheide"},{"id":"9176001","lat":52.511961,"lng":13.612203,"name":"S Mahlsdorf"},{"id":"9175005","lat":52.528241,"lng":13.590773,"name":"U Neue Grottkauer Str."},{"id":"9175004","lat":52.521436,"lng":13.588759,"name":"U Kaulsdorf-Nord"},{"id":"9175007","lat":52.535944,"lng":13.605794,"name":"U Hellersdorf"},{"id":"9175006","lat":52.533967,"lng":13.596885,"name":"U Cottbusser Platz"},{"id":"9175001","lat":52.512536,"lng":13.575473,"name":"S+U Wuhletal"},{"id":"9120001","lat":52.513615,"lng":13.475297,"name":"S+U Frankfurter Allee"},{"id":"9175002","lat":52.512123,"lng":13.589029,"name":"S Kaulsdorf"},{"id":"9068101","lat":52.478144,"lng":13.386717,"name":"U Paradestr."},{"id":"9245028","lat":52.360358,"lng":13.408471,"name":"S Mahlow"},{"id":"9350162","lat":52.648786,"lng":13.513447,"name":"S Röntgental"},{"id":"9152002","lat":52.555739,"lng":13.525646,"name":"S Gehrenseestr."},{"id":"9045101","lat":52.472463,"lng":13.314381,"name":"U Rüdesheimer Platz"},{"id":"9011101","lat":52.556665,"lng":13.341007,"name":"U Rehberge"},{"id":"9110001","lat":52.549338,"lng":13.415132,"name":"S+U Schönhauser Allee"},{"id":"9110002","lat":52.54488,"lng":13.427744,"name":"S Prenzlauer Allee"},{"id":"9152001","lat":52.566544,"lng":13.51369,"name":"S Hohenschoenhausen Bhf"},{"id":"9110004","lat":52.528771,"lng":13.455943,"name":"S Landsberger Allee"},{"id":"9110005","lat":52.532618,"lng":13.412624,"name":"U Senefelderplatz"},{"id":"9110006","lat":52.541086,"lng":13.412157,"name":"U Eberswalder Str."},{"id":"9003101","lat":52.51811,"lng":13.342158,"name":"U Hansaplatz"},{"id":"9043201","lat":52.491987,"lng":13.331209,"name":"U Güntzelstr."},{"id":"9014101","lat":52.499035,"lng":13.428463,"name":"U Görlitzer Bahnhof"},{"id":"9143001","lat":52.614501,"lng":13.468942,"name":"S Karow Bhf"},{"id":"9089301","lat":52.589934,"lng":13.283297,"name":"U Alt-Tegel"},{"id":"9022201","lat":52.511826,"lng":13.309419,"name":"U Deutsche Oper"},{"id":"9025424","lat":52.510559,"lng":13.226745,"name":"S Pichelsberg"},{"id":"9110003","lat":52.54043,"lng":13.439241,"name":"S Greifswalder Str."},{"id":"9200008","lat":52.687898,"lng":13.288366,"name":"S Birkenwerder Bhf"},{"id":"9200009","lat":52.669434,"lng":13.287216,"name":"S Hohen Neuendorf"},{"id":"9070101","lat":52.445801,"lng":13.385558,"name":"U Westphalweg"},{"id":"9200006","lat":52.738049,"lng":13.264617,"name":"S Lehnitz"},{"id":"9200007","lat":52.714488,"lng":13.27677,"name":"S Borgsdorf"},{"id":"9013103","lat":52.498271,"lng":13.40653,"name":"U Prinzenstr."},{"id":"9013102","lat":52.49925,"lng":13.418162,"name":"U Kottbusser Tor"},{"id":"9013101","lat":52.503736,"lng":13.410943,"name":"U Moritzplatz"},{"id":"9003103","lat":52.514397,"lng":13.336468,"name":"S Tiergarten"},{"id":"9023101","lat":52.511584,"lng":13.322579,"name":"U Ernst-Reuter-Platz"},{"id":"9083102","lat":52.423148,"lng":13.474812,"name":"U Wutzkyallee"},{"id":"9030202","lat":52.532484,"lng":13.209675,"name":"S Stresow"},{"id":"9083101","lat":52.423031,"lng":13.484367,"name":"U Zwickauer Damm"},{"id":"9320005","lat":52.529184,"lng":13.790621,"name":"S Petershagen Nord"},{"id":"9320004","lat":52.532457,"lng":13.833805,"name":"S Strausberg Bhf"},{"id":"9175010","lat":52.538102,"lng":13.634532,"name":"U Hönow"},{"id":"9080401","lat":52.445342,"lng":13.449921,"name":"U Parchimer Allee"},{"id":"9320001","lat":52.590967,"lng":13.908883,"name":"S Strausberg Nord"},{"id":"9084101","lat":52.581592,"lng":13.363283,"name":"S Wilhelmsruh"},{"id":"9320003","lat":52.54906,"lng":13.866256,"name":"S Hegermühle"},{"id":"9320002","lat":52.579227,"lng":13.888513,"name":"S Strausberg Stadt"},{"id":"9014102","lat":52.500761,"lng":13.44192,"name":"U Schlesisches Tor"},{"id":"9094101","lat":52.606815,"lng":13.320548,"name":"S Waidmannslust"},{"id":"9058103","lat":52.492634,"lng":13.371175,"name":"S Yorckstr. S2 S25"},{"id":"9060101","lat":52.470934,"lng":13.341753,"name":"S Friedenau"},{"id":"9026105","lat":52.508276,"lng":13.258513,"name":"S Heerstr."},{"id":"9078201","lat":52.469298,"lng":13.442361,"name":"S+U Neukölln"},{"id":"9051201","lat":52.450996,"lng":13.281643,"name":"U Thielplatz"},{"id":"9002201","lat":52.532232,"lng":13.341412,"name":"U Birkenstr."},{"id":"9042101","lat":52.496581,"lng":13.330607,"name":"U Spichernstr."},{"id":"9096458","lat":52.578167,"lng":13.332917,"name":"S+U Karl-Bonhoeffer-Nervenklinik"},{"id":"9161002","lat":52.497237,"lng":13.523623,"name":"U Tierpark"},{"id":"9061101","lat":52.465001,"lng":13.328404,"name":"U Walther-Schreiber-Platz"},{"id":"9009203","lat":52.552251,"lng":13.381836,"name":"U Pankstr."},{"id":"9009202","lat":52.556934,"lng":13.373279,"name":"U Osloer Str."},{"id":"9009201","lat":52.551523,"lng":13.367364,"name":"U Nauener Platz"},{"id":"9135001","lat":52.636174,"lng":13.492089,"name":"S Buch"},{"id":"9051302","lat":52.464174,"lng":13.295198,"name":"U Podbielskiallee"},{"id":"9009103","lat":52.550471,"lng":13.351965,"name":"U Seestr."},{"id":"9082202","lat":52.429251,"lng":13.453849,"name":"U Johannisthaler Chaussee"},{"id":"9049202","lat":52.436182,"lng":13.273498,"name":"S Sundgauer Str."},{"id":"9049201","lat":52.431211,"lng":13.259223,"name":"S Zehlendorf"},{"id":"9082201","lat":52.424649,"lng":13.463108,"name":"U Lipschitzallee"},{"id":"9200005","lat":52.754364,"lng":13.248427,"name":"S Oranienburg Bhf"},{"id":"9012101","lat":52.5045,"lng":13.382349,"name":"S Anhalter Bahnhof"},{"id":"9012102","lat":52.506675,"lng":13.390861,"name":"U Kochstr./Checkpoint Charlie"},{"id":"9087101","lat":52.56711,"lng":13.311523,"name":"U Scharnweberstr."},{"id":"9029301","lat":52.539163,"lng":13.206762,"name":"U Altstadt Spandau"},{"id":"9029302","lat":52.53554,"lng":13.19976,"name":"S+U Rathaus Spandau"},{"id":"9182002","lat":52.457001,"lng":13.625453,"name":"S Friedrichshagen"},{"id":"9061102","lat":52.471438,"lng":13.328674,"name":"U Friedrich-Wilhelm-Platz"},{"id":"9025321","lat":52.511134,"lng":13.24111,"name":"S Olympiastadion"},{"id":"9069271","lat":52.45345,"lng":13.384767,"name":"U Ullsteinstr."},{"id":"9093201","lat":52.61789,"lng":13.307855,"name":"S Hermsdorf"},{"id":"9130002","lat":52.567281,"lng":13.412274,"name":"S+U Pankow"},{"id":"9025203","lat":52.517049,"lng":13.250495,"name":"U Olympia-Stadion"},{"id":"9025202","lat":52.525589,"lng":13.241901,"name":"U Ruhleben"},{"id":"9063101","lat":52.463581,"lng":13.332405,"name":"S Feuerbachstr."},{"id":"9022202","lat":52.517157,"lng":13.307217,"name":"U Richard-Wagner-Platz"},{"id":"9130003","lat":52.564845,"lng":13.392875,"name":"S Wollankstr."},{"id":"9192001","lat":52.455041,"lng":13.511335,"name":"S Schöneweide Bhf"},{"id":"9171003","lat":52.525805,"lng":13.5369,"name":"S Springpfuhl"},{"id":"9230999","lat":52.39093,"lng":13.067169,"name":"S Potsdam Hbf"},{"id":"9078101","lat":52.486674,"lng":13.425119,"name":"U Hermannplatz"},{"id":"9078102","lat":52.481065,"lng":13.435241,"name":"U Rathaus Neukölln"},{"id":"9078103","lat":52.476427,"lng":13.439799,"name":"U Karl-Marx-Str."},{"id":"9073101","lat":52.423813,"lng":13.375013,"name":"S Marienfelde"},{"id":"9044101","lat":52.488311,"lng":13.300709,"name":"S Hohenzollerndamm"},{"id":"9017101","lat":52.493569,"lng":13.388147,"name":"U Mehringdamm"},{"id":"9009101","lat":52.542201,"lng":13.349529,"name":"U Amrumer Str."},{"id":"9009102","lat":52.546489,"lng":13.35939,"name":"U Leopoldplatz"},{"id":"9086160","lat":52.575389,"lng":13.339039,"name":"U Lindauer Allee"},{"id":"9009104","lat":52.542731,"lng":13.366051,"name":"S+U Wedding"},{"id":"9016202","lat":52.489218,"lng":13.40768,"name":"U Südstern"},{"id":"9016201","lat":52.493174,"lng":13.422234,"name":"U Schönleinstr."},{"id":"9096101","lat":52.596289,"lng":13.334958,"name":"S+U Wittenau"},{"id":"9005252","lat":52.503808,"lng":13.374717,"name":"U Mendelssohn-Bartholdy-Park"},{"id":"9085203","lat":52.57084,"lng":13.360631,"name":"U Residenzstr."},{"id":"9085202","lat":52.563856,"lng":13.36428,"name":"U Franz-Neumann-Platz"},{"id":"9085201","lat":52.571856,"lng":13.380335,"name":"S Schönholz"},{"id":"9077155","lat":52.469164,"lng":13.467521,"name":"S Köllnische Heide"},{"id":"9051303","lat":52.457693,"lng":13.290002,"name":"U Dahlem-Dorf"},{"id":"9007102","lat":52.549033,"lng":13.388039,"name":"S+U Gesundbrunnen Bhf"},{"id":"9051301","lat":52.450691,"lng":13.269948,"name":"U Oskar-Helene-Heim"},{"id":"9012103","lat":52.497776,"lng":13.391751,"name":"U Hallesches Tor"},{"id":"9018102","lat":52.536699,"lng":13.286578,"name":"U Halemweg"},{"id":"9003104","lat":52.52584,"lng":13.342401,"name":"U Turmstr."},{"id":"9182001","lat":52.4579,"lng":13.601479,"name":"S Hirschgarten"},{"id":"9018101","lat":52.536987,"lng":13.293652,"name":"U Jakob-Kaiser-Platz"},{"id":"9003254","lat":52.519908,"lng":13.373449,"name":"U Bundestag"},{"id":"9043101","lat":52.49383,"lng":13.324045,"name":"U Hohenzollernplatz"},{"id":"9052201","lat":52.431634,"lng":13.193611,"name":"S Nikolassee"},{"id":"9036101","lat":52.536906,"lng":13.262864,"name":"U Rohrdamm"},{"id":"9024101","lat":52.505147,"lng":13.303477,"name":"S Charlottenburg"},{"id":"9007103","lat":52.541931,"lng":13.393154,"name":"U Voltastr."},{"id":"9011102","lat":52.560862,"lng":13.333501,"name":"U Afrikanische Str."},{"id":"9024102","lat":52.501147,"lng":13.283036,"name":"S Westkreuz"},{"id":"9034102","lat":52.53901,"lng":13.231752,"name":"U Haselhorst"},{"id":"9088201","lat":52.576252,"lng":13.295081,"name":"U Holzhauser Str."},{"id":"9088202","lat":52.58214,"lng":13.290119,"name":"U Borsigwerke"},{"id":"9024106","lat":52.506451,"lng":13.283036,"name":"S Messe Nord/ICC"},{"id":"9007110","lat":52.537994,"lng":13.396228,"name":"U Bernauer Str."},{"id":"9310004","lat":52.428397,"lng":13.752246,"name":"S Erkner Bhf"},{"id":"9001201","lat":52.536529,"lng":13.342724,"name":"S+U Westhafen"},{"id":"9026202","lat":52.509975,"lng":13.281966,"name":"U Kaiserdamm"},{"id":"9007104","lat":52.531872,"lng":13.38812,"name":"S Nordbahnhof"},{"id":"9100051","lat":52.525373,"lng":13.405298,"name":"U Weinmeisterstr."},{"id":"9068201","lat":52.470692,"lng":13.385747,"name":"S+U Tempelhof"},{"id":"9085104","lat":52.574535,"lng":13.347524,"name":"U Paracelsus-Bad"},{"id":"9056101","lat":52.502109,"lng":13.342553,"name":"U Wittenbergplatz"},{"id":"9056102","lat":52.499646,"lng":13.353817,"name":"U Nollendorfplatz"},{"id":"9092201","lat":52.632956,"lng":13.289562,"name":"S Frohnau"},{"id":"9161512","lat":52.505893,"lng":13.512782,"name":"U Friedrichsfelde"},{"id":"9041101","lat":52.490198,"lng":13.314516,"name":"U Fehrbelliner Platz"},{"id":"9050301","lat":52.437162,"lng":13.232058,"name":"S Mexikoplatz"},{"id":"9068302","lat":52.460516,"lng":13.384902,"name":"U Kaiserin-Augusta-Str."},{"id":"9023201","lat":52.506882,"lng":13.332926,"name":"S+U Zoologischer Garten Bhf"},{"id":"9072101","lat":52.410922,"lng":13.382681,"name":"S Buckower Chaussee"},{"id":"9190001","lat":52.492868,"lng":13.46024,"name":"S Treptower Park"},{"id":"9019204","lat":52.525975,"lng":13.305707,"name":"U Mierendorffplatz"},{"id":"9070301","lat":52.439113,"lng":13.387877,"name":"U Alt-Mariendorf"},{"id":"9162001","lat":52.481038,"lng":13.525978,"name":"S Karlshorst Bhf"},{"id":"9040101","lat":52.496697,"lng":13.290146,"name":"S Halensee"},{"id":"9079201","lat":52.472876,"lng":13.428391,"name":"U Leinestr."},{"id":"9079202","lat":52.479744,"lng":13.425776,"name":"U Boddinstr."},{"id":"9058102","lat":52.459239,"lng":13.356019,"name":"S Priesterweg"},{"id":"9024202","lat":52.505831,"lng":13.306884,"name":"U Wilmersdorfer Str."},{"id":"9048101","lat":52.488679,"lng":13.261938,"name":"S Grunewald"},{"id":"9058101","lat":52.476508,"lng":13.364883,"name":"S Südkreuz Bhf"},{"id":"9320006","lat":52.526461,"lng":13.761316,"name":"S Fredersdorf"},{"id":"9024203","lat":52.504968,"lng":13.31982,"name":"S Savignyplatz"},{"id":"9066102","lat":52.447553,"lng":13.306039,"name":"S Botanischer Garten"},{"id":"9066101","lat":52.443535,"lng":13.295845,"name":"S Lichterfelde West"},{"id":"9320008","lat":52.518245,"lng":13.672961,"name":"S Hoppegarten"},{"id":"9024201","lat":52.511512,"lng":13.305284,"name":"U Bismarckstr."},{"id":"9100020","lat":52.509166,"lng":13.377683,"name":"S+U Potsdamer Platz Bhf"},{"id":"9022101","lat":52.510972,"lng":13.297455,"name":"U Sophie-Charlotte-Platz"},{"id":"9026201","lat":52.509444,"lng":13.272671,"name":"U Theodor-Heuss-Platz"},{"id":"9130011","lat":52.559514,"lng":13.413766,"name":"U Vinetastr."},{"id":"9186001","lat":52.412882,"lng":13.574268,"name":"S Grünau"},{"id":"9016101","lat":52.49125,"lng":13.395374,"name":"U Gneisenaustr."},{"id":"9074202","lat":52.398382,"lng":13.390241,"name":"S Schichauweg"},{"id":"9080402","lat":52.437072,"lng":13.447664,"name":"U Britz-Süd"},{"id":"9057104","lat":52.486261,"lng":13.360775,"name":"S Julius-Leber-Brücke"},{"id":"9041201","lat":52.493569,"lng":13.310084,"name":"U Konstanzer Str."},{"id":"9100027","lat":52.514775,"lng":13.390079,"name":"U Französische Str."},{"id":"9057103","lat":52.492805,"lng":13.369809,"name":"S+U Yorckstr."},{"id":"9100025","lat":52.51651,"lng":13.380928,"name":"S+U Brandenburger Tor"},{"id":"9029101","lat":52.534758,"lng":13.197647,"name":"S Spandau Bhf"},{"id":"9100023","lat":52.529778,"lng":13.401388,"name":"U Rosenthaler Platz"},{"id":"9320007","lat":52.520816,"lng":13.698382,"name":"S Neuenhagen"},{"id":"9057102","lat":52.492985,"lng":13.369314,"name":"S Yorckstr. S1"},{"id":"9023302","lat":52.500086,"lng":13.307343,"name":"U Adenauerplatz"},{"id":"9023301","lat":52.502738,"lng":13.326229,"name":"U Uhlandstr."},{"id":"9003102","lat":52.519764,"lng":13.346922,"name":"S Bellevue"},{"id":"9100501","lat":52.535396,"lng":13.377027,"name":"U Schwartzkopffstr."},{"id":"9041102","lat":52.486351,"lng":13.321618,"name":"U Blissestr."},{"id":"9020201","lat":52.530272,"lng":13.299064,"name":"S+U Jungfernheide Bhf"},{"id":"9050282","lat":52.450142,"lng":13.25401,"name":"U Onkel Toms Hütte"},{"id":"9074201","lat":52.387164,"lng":13.396794,"name":"S Lichtenrade"},{"id":"9050355","lat":52.440119,"lng":13.216111,"name":"S Schlachtensee"},{"id":"9080202","lat":52.463518,"lng":13.444824,"name":"U Grenzallee"},{"id":"9017103","lat":52.499583,"lng":13.374285,"name":"U Gleisdreieck"},{"id":"9017102","lat":52.484976,"lng":13.386349,"name":"U Platz der Luftbrücke"},{"id":"9120009","lat":52.514658,"lng":13.465346,"name":"U Samariterstr."},{"id":"9120008","lat":52.51508,"lng":13.454172,"name":"U Frankfurter Tor"},{"id":"9096410","lat":52.588217,"lng":13.325564,"name":"U Rathaus Reinickendorf"},{"id":"9017104","lat":52.498945,"lng":13.383248,"name":"U Möckernbrücke"},{"id":"9350161","lat":52.669173,"lng":13.564677,"name":"S Bernau-Friedenstal"},{"id":"9350160","lat":52.67623,"lng":13.593029,"name":"S Bernau Bhf"},{"id":"9350163","lat":52.659213,"lng":13.533143,"name":"S Zepernick"},{"id":"9175015","lat":52.539136,"lng":13.6197,"name":"U Louis-Lewin-Str."},{"id":"9120006","lat":52.518029,"lng":13.432203,"name":"U Strausberger Platz"},{"id":"9120005","lat":52.510001,"lng":13.435745,"name":"S Ostbahnhof"},{"id":"9120004","lat":52.505884,"lng":13.448716,"name":"S+U Warschauer Str."},{"id":"9193001","lat":52.446061,"lng":13.524855,"name":"S Betriebsbahnhof Schöneweide"},{"id":"9193002","lat":52.435355,"lng":13.541071,"name":"S Adlershof"},{"id":"9053301","lat":52.420999,"lng":13.177952,"name":"S Wannsee Bhf"},{"id":"9003201","lat":52.525849,"lng":13.368919,"name":"S Berlin Hauptbahnhof"},{"id":"9005201","lat":52.499808,"lng":13.362806,"name":"U Kurfürstenstr."},{"id":"9079221","lat":52.467177,"lng":13.431699,"name":"S+U Hermannstr."},{"id":"9080201","lat":52.45274,"lng":13.448968,"name":"U Blaschkoallee"},{"id":"9026207","lat":52.518613,"lng":13.284231,"name":"S Westend"},{"id":"9183001","lat":52.451149,"lng":13.692441,"name":"S Rahnsdorf"},{"id":"9183002","lat":52.438582,"lng":13.722402,"name":"S Wilhelmshagen"},{"id":"9068202","lat":52.465927,"lng":13.385792,"name":"U Alt-Tempelhof"},{"id":"9086101","lat":52.571119,"lng":13.303073,"name":"U Otisstr."},{"id":"9142001","lat":52.591066,"lng":13.442972,"name":"S Blankenburg"},{"id":"9086102","lat":52.563478,"lng":13.327326,"name":"U Kurt-Schumacher-Platz"},{"id":"9260002","lat":52.319062,"lng":13.634622,"name":"S Wildau"},{"id":"9260003","lat":52.349158,"lng":13.627044,"name":"S Zeuthen"},{"id":"9026101","lat":52.516411,"lng":13.259907,"name":"U Neu-Westend"},{"id":"9260001","lat":52.29693,"lng":13.630927,"name":"S Königs Wusterhausen Bhf"},{"id":"9055101","lat":52.496167,"lng":13.343264,"name":"U Viktoria-Luise-Platz"},{"id":"9260004","lat":52.372089,"lng":13.614963,"name":"S Eichwalde"},{"id":"9055102","lat":52.488652,"lng":13.340234,"name":"U Bayerischer Platz"},{"id":"9051202","lat":52.467339,"lng":13.309275,"name":"U Breitenbachplatz"},{"id":"9025423","lat":52.498774,"lng":13.270442,"name":"S Messe Süd"},{"id":"9056104","lat":52.497659,"lng":13.362447,"name":"U Bülowstr."},{"id":"9062202","lat":52.456597,"lng":13.321752,"name":"S+U Rathaus Steglitz"},{"id":"9062203","lat":52.461478,"lng":13.325132,"name":"U Schloßstr."},{"id":"9230003","lat":52.393906,"lng":13.12737,"name":"S Griebnitzsee Bhf"},{"id":"9044201","lat":52.487043,"lng":13.331353,"name":"U Berliner Str."},{"id":"9044202","lat":52.477362,"lng":13.329142,"name":"S+U Bundesplatz"},{"id":"9230000","lat":52.391371,"lng":13.094622,"name":"S Babelsberg"}]
