Stations = [{"nr":"9220047","name":"A.-Einstein-Ring","place":"Kleinmachnow","lon":"13.188238","lat":"52.405998","gk4x":"4580967","gk4y":"5808742\n"},{"nr":"9194525","name":"A.-Einstein-Str.","place":"Berlin","lon":"13.539444","lat":"52.431126","gk4x":"4604807","gk4y":"5811989\n"},{"nr":"9027205","name":"Aalemannufer","place":"Berlin","lon":"13.212685","lat":"52.573261","gk4x":"4582318","gk4y":"5827381\n"},{"nr":"9012105","name":"Abgeordnetenhaus","place":"Berlin","lon":"13.379666","lat":"52.506553","gk4x":"4593780","gk4y":"5820162\n"},{"nr":"9193510","name":"Abtstr.","place":"Berlin","lon":"13.543538","lat":"52.435513","gk4x":"4605075","gk4y":"5812483\n"},{"nr":"9230083","name":"Abzweig Betriebshof ViP","place":"Potsdam","lon":"13.111344","lat":"52.373412","gk4x":"4575790","gk4y":"5805033\n"},{"nr":"9230134","name":"Abzweig nach Eiche","place":"Potsdam","lon":"13.013576","lat":"52.405998","gk4x":"4569081","gk4y":"5808561\n"},{"nr":"9230118","name":"Abzweig nach Nedlitz","place":"Potsdam","lon":"13.008400","lat":"52.432222","gk4x":"4568688","gk4y":"5811474\n"},{"nr":"9210134","name":"Abzweig Waldheim","place":"Falkensee","lon":"13.061618","lat":"52.576671","gk4x":"4572071","gk4y":"5827599\n"},{"nr":"9350244","name":"Abzweig Wohnsiedlung","place":"Bernau","lon":"13.558842","lat":"52.667834","gk4x":"4605557","gk4y":"5838355\n"},{"nr":"9175549","name":"Achardstr.","place":"Berlin","lon":"13.579138","lat":"52.499986","gk4x":"4607339","gk4y":"5819709\n"},{"nr":"9100546","name":"Adalbertstr.","place":"Berlin","lon":"13.422146","lat":"52.505286","gk4x":"4596667","gk4y":"5820077\n"},{"nr":"9014103","name":"Adalbertstr./Oranienstr.","place":"Berlin","lon":"13.419293","lat":"52.501285","gk4x":"4596482","gk4y":"5819628\n"},{"nr":"9170515","name":"Adersleber Weg","place":"Berlin","lon":"13.560320","lat":"52.537893","gk4x":"4605970","gk4y":"5823899\n"},{"nr":"9193501","name":"Adlergestell/Glienicker Weg","place":"Berlin","lon":"13.550170","lat":"52.429233","gk4x":"4605541","gk4y":"5811794\n"},{"nr":"9185503","name":"Adlergestell/Vetschauer Allee","place":"Berlin","lon":"13.633782","lat":"52.386162","gk4x":"4611336","gk4y":"5807127\n"},{"nr":"9068158","name":"Adolf-Scheidt-Platz","place":"Berlin","lon":"13.378366","lat":"52.478195","gk4x":"4593752","gk4y":"5817005\n"},{"nr":"9175555","name":"Adolfstr.","place":"Berlin","lon":"13.585050","lat":"52.505093","gk4x":"4607728","gk4y":"5820286\n"},{"nr":"9064258","name":"Ahlener Weg","place":"Berlin","lon":"13.305064","lat":"52.410517","gk4x":"4588908","gk4y":"5809382\n"},{"nr":"9182503","name":"Ahornallee","place":"Berlin","lon":"13.619022","lat":"52.455606","gk4x":"4610158","gk4y":"5814831\n"},{"nr":"9310553","name":"Ahornallee","place":"Erkner","lon":"13.741109","lat":"52.415466","gk4x":"4618564","gk4y":"5810558\n"},{"nr":"9073253","name":"Ahrensdorfer Str.","place":"Berlin","lon":"13.359293","lat":"52.409070","gk4x":"4592601","gk4y":"5809289\n"},{"nr":"9170006","name":"Ahrensfelde","place":"Berlin","lon":"13.574675","lat":"52.572835","gk4x":"4606859","gk4y":"5827808\n"},{"nr":"9151501","name":"Ahrenshooper Str.","place":"Berlin","lon":"13.501888","lat":"52.566214","gk4x":"4601940","gk4y":"5826966\n"},{"nr":"9194502","name":"Akeleiweg","place":"Berlin","lon":"13.512816","lat":"52.429412","gk4x":"4603000","gk4y":"5811760\n"},{"nr":"9140005","name":"Albertinenstr.","place":"Berlin","lon":"13.457775","lat":"52.549789","gk4x":"4598986","gk4y":"5825077\n"},{"nr":"9350254","name":"Albertshofer Chaussee","place":"Bernau","lon":"13.616948","lat":"52.692048","gk4x":"4609427","gk4y":"5841136\n"},{"nr":"9054151","name":"Albertstr.","place":"Berlin","lon":"13.352978","lat":"52.484510","gk4x":"4592014","gk4y":"5817675\n"},{"nr":"9058107","name":"Alboinplatz","place":"Berlin","lon":"13.369803","lat":"52.461255","gk4x":"4593206","gk4y":"5815109\n"},{"nr":"9058151","name":"Alboinstr./Arnulfstr.","place":"Berlin","lon":"13.369867","lat":"52.455745","gk4x":"4593222","gk4y":"5814496\n"},{"nr":"9037168","name":"Albrechtshof Bhf","place":"Berlin","lon":"13.127624","lat":"52.549334","gk4x":"4576593","gk4y":"5824625\n"},{"nr":"9068204","name":"Albrechtstr./Manteuffelstr.","place":"Berlin","lon":"13.376712","lat":"52.461067","gk4x":"4593676","gk4y":"5815097\n"},{"nr":"9195009","name":"Alemannenstr.","place":"Berlin","lon":"13.552075","lat":"52.414810","gk4x":"4605705","gk4y":"5810192\n"},{"nr":"9092205","name":"Alemannenstr./Maximiliankorso","place":"Berlin","lon":"13.281165","lat":"52.634145","gk4x":"4586840","gk4y":"5834236\n"},{"nr":"9100518","name":"Alexanderstr.","place":"Berlin","lon":"13.418129","lat":"52.517745","gk4x":"4596367","gk4y":"5821458\n"},{"nr":"9012156","name":"Alexandrinenstr.","place":"Berlin","lon":"13.405322","lat":"52.505154","gk4x":"4595525","gk4y":"5820040\n"},{"nr":"9037131","name":"Alfons-Loewe-Str.","place":"Berlin","lon":"13.133322","lat":"52.549054","gk4x":"4576980","gk4y":"5824600\n"},{"nr":"9170019","name":"Allee der Kosmonauten/Poelchaustr.","place":"Berlin","lon":"13.552324","lat":"52.533909","gk4x":"4605437","gk4y":"5823444\n"},{"nr":"9171008","name":"Allee der Kosmonauten/Rhinstr.","place":"Berlin","lon":"13.519855","lat":"52.525775","gk4x":"4603253","gk4y":"5822492\n"},{"nr":"9051255","name":"Alliiertenmuseum","place":"Berlin","lon":"13.273660","lat":"52.456479","gk4x":"4586681","gk4y":"5814458\n"},{"nr":"9093202","name":"Almutstr.","place":"Berlin","lon":"13.317231","lat":"52.615272","gk4x":"4589320","gk4y":"5832180\n"},{"nr":"9065151","name":"Alsterweg","place":"Berlin","lon":"13.276621","lat":"52.412895","gk4x":"4586968","gk4y":"5809612\n"},{"nr":"9230078","name":"Alt Nowawes","place":"Potsdam","lon":"13.085623","lat":"52.393369","gk4x":"4574005","gk4y":"5807227\n"},{"nr":"9142502","name":"Alt-Blankenburg","place":"Berlin","lon":"13.453308","lat":"52.593045","gk4x":"4598586","gk4y":"5829884\n"},{"nr":"9135511","name":"Alt-Buch","place":"Berlin","lon":"13.502931","lat":"52.636787","gk4x":"4601847","gk4y":"5834820\n"},{"nr":"9135512","name":"Alt-Buch/Karower Str.","place":"Berlin","lon":"13.499620","lat":"52.635418","gk4x":"4601626","gk4y":"5834663\n"},{"nr":"9135506","name":"Alt-Buch/Wiltbergstr.","place":"Berlin","lon":"13.498294","lat":"52.633790","gk4x":"4601540","gk4y":"5834480\n"},{"nr":"9081201","name":"Alt-Buckow","place":"Berlin","lon":"13.436366","lat":"52.423715","gk4x":"4597813","gk4y":"5811020\n"},{"nr":"9025451","name":"Alte Allee","place":"Berlin","lon":"13.263419","lat":"52.491855","gk4x":"4585916","gk4y":"5818382\n"},{"nr":"9181513","name":"Alte Försterei","place":"Berlin","lon":"13.563414","lat":"52.456516","gk4x":"4606376","gk4y":"5814849\n"},{"nr":"9175512","name":"Alte Hellersdorfer/Zossener Str.","place":"Berlin","lon":"13.592173","lat":"52.544839","gk4x":"4608114","gk4y":"5824719\n"},{"nr":"9100522","name":"Alte Jakobstr.","place":"Berlin","lon":"13.410032","lat":"52.510554","gk4x":"4595833","gk4y":"5820647\n"},{"nr":"9210836","name":"Alte Potsdamer Landstr.","place":"Stahnsdorf","lon":"13.197407","lat":"52.391876","gk4x":"4581617","gk4y":"5807181\n"},{"nr":"9026171","name":"Altenburger Allee","place":"Berlin","lon":"13.257910","lat":"52.518587","gk4x":"4585490","gk4y":"5821350\n"},{"nr":"9150509","name":"Altenhofer Str.","place":"Berlin","lon":"13.480171","lat":"52.534933","gk4x":"4600539","gk4y":"5823455\n"},{"nr":"9051313","name":"Altensteinstr./Fabeckstr.","place":"Berlin","lon":"13.295847","lat":"52.451043","gk4x":"4588200","gk4y":"5813880\n"},{"nr":"9171512","name":"Altentreptower Str.","place":"Berlin","lon":"13.565707","lat":"52.513251","gk4x":"4606395","gk4y":"5821165\n"},{"nr":"9210140","name":"Alter Finkenkrug","place":"Falkensee","lon":"13.050402","lat":"52.592507","gk4x":"4571285","gk4y":"5829350\n"},{"nr":"9210121","name":"Alter Fischerweg","place":"Falkensee","lon":"13.109556","lat":"52.565375","gk4x":"4575340","gk4y":"5826391\n"},{"nr":"9230018","name":"Alter Markt","place":"Potsdam","lon":"13.059301","lat":"52.395343","gk4x":"4572210","gk4y":"5807420\n"},{"nr":"9195520","name":"Alter Schönefelder Weg","place":"Berlin","lon":"13.537452","lat":"52.420789","gk4x":"4604696","gk4y":"5810836\n"},{"nr":"9230150","name":"Alter Tornow","place":"Potsdam","lon":"13.044931","lat":"52.382853","gk4x":"4571252","gk4y":"5806016\n"},{"nr":"9210141","name":"Altersheim","place":"Falkensee","lon":"13.099137","lat":"52.585720","gk4x":"4574599","gk4y":"5828644\n"},{"nr":"9182005","name":"Altes Wasserwerk","place":"Berlin","lon":"13.639572","lat":"52.447620","gk4x":"4611575","gk4y":"5813974\n"},{"nr":"9161005","name":"Alt-Friedrichsfelde/Gensinger Str.","place":"Berlin","lon":"13.531939","lat":"52.510143","gk4x":"4604110","gk4y":"5820770\n"},{"nr":"9161004","name":"Alt-Friedrichsfelde/Rhinstr.","place":"Berlin","lon":"13.518968","lat":"52.510346","gk4x":"4603229","gk4y":"5820774\n"},{"nr":"9038104","name":"Alt-Gatow","place":"Berlin","lon":"13.183067","lat":"52.483411","gk4x":"4580474","gk4y":"5817350\n"},{"nr":"9195006","name":"Altglienicke Kirche","place":"Berlin","lon":"13.539186","lat":"52.421621","gk4x":"4604812","gk4y":"5810931\n"},{"nr":"9195508","name":"Altglienicker Brücke","place":"Berlin","lon":"13.543665","lat":"52.424411","gk4x":"4605110","gk4y":"5811248\n"},{"nr":"9220450","name":"Alt-Golm","place":"Potsdam","lon":"12.960625","lat":"52.405021","gk4x":"4565479","gk4y":"5808403\n"},{"nr":"9091101","name":"Alt-Heiligensee","place":"Berlin","lon":"13.212061","lat":"52.606761","gk4x":"4582213","gk4y":"5831108\n"},{"nr":"9050206","name":"Altkanzlerstr.","place":"Berlin","lon":"13.244857","lat":"52.446666","gk4x":"4584742","gk4y":"5813332\n"},{"nr":"9143509","name":"Alt-Karow","place":"Berlin","lon":"13.482421","lat":"52.610847","gk4x":"4600518","gk4y":"5831905\n"},{"nr":"9143501","name":"Alt-Karow/Bahnhofstr.","place":"Berlin","lon":"13.480180","lat":"52.609608","gk4x":"4600369","gk4y":"5831764\n"},{"nr":"9175548","name":"Alt-Kaulsdorf/Chemnitzer Str.","place":"Berlin","lon":"13.581438","lat":"52.504566","gk4x":"4607484","gk4y":"5820222\n"},{"nr":"9039102","name":"Alt-Kladow","place":"Berlin","lon":"13.144273","lat":"52.454315","gk4x":"4577890","gk4y":"5814070\n"},{"nr":"9095101","name":"Alt-Lübars","place":"Berlin","lon":"13.355506","lat":"52.620205","gk4x":"4591902","gk4y":"5832777\n"},{"nr":"9176524","name":"Alt-Mahlsdorf","place":"Berlin","lon":"13.613271","lat":"52.505116","gk4x":"4609644","gk4y":"5820331\n"},{"nr":"9060152","name":"Altmarkstr.","place":"Berlin","lon":"13.342435","lat":"52.458810","gk4x":"4591351","gk4y":"5814802\n"},{"nr":"9170516","name":"Alt-Marzahn","place":"Berlin","lon":"13.563708","lat":"52.541965","gk4x":"4606190","gk4y":"5824357\n"},{"nr":"9003107","name":"Alt-Moabit/Gotzkowskystr.","place":"Berlin","lon":"13.329892","lat":"52.523929","gk4x":"4590365","gk4y":"5822032\n"},{"nr":"9003203","name":"Alt-Moabit/Rathenower Str.","place":"Berlin","lon":"13.357070","lat":"52.523692","gk4x":"4592210","gk4y":"5822040\n"},{"nr":"9184002","name":"Alt-Müggelheim","place":"Berlin","lon":"13.666464","lat":"52.409909","gk4x":"4613500","gk4y":"5809820\n"},{"nr":"9032402","name":"Alt-Pichelsdorf","place":"Berlin","lon":"13.196948","lat":"52.513208","gk4x":"4581362","gk4y":"5820681\n"},{"nr":"9083251","name":"Alt-Rudow/Köpenicker Str.","place":"Berlin","lon":"13.495572","lat":"52.417786","gk4x":"4601854","gk4y":"5810442\n"},{"nr":"9185001","name":"Alt-Schmöckwitz","place":"Berlin","lon":"13.649473","lat":"52.375221","gk4x":"4612432","gk4y":"5805934\n"},{"nr":"9049374","name":"Alt-Schönow","place":"Berlin","lon":"13.267737","lat":"52.407023","gk4x":"4586375","gk4y":"5808948\n"},{"nr":"9120501","name":"Alt-Stralau","place":"Berlin","lon":"13.476616","lat":"52.492683","gk4x":"4600394","gk4y":"5818749\n"},{"nr":"9190501","name":"Alt-Treptow","place":"Berlin","lon":"13.477134","lat":"52.487050","gk4x":"4600442","gk4y":"5818123\n"},{"nr":"9096404","name":"Alt-Wittenau/Roedernallee","place":"Berlin","lon":"13.339171","lat":"52.589143","gk4x":"4590860","gk4y":"5829300\n"},{"nr":"9037113","name":"Am alten Gaswerk","place":"Berlin","lon":"13.130561","lat":"52.536292","gk4x":"4576815","gk4y":"5823177\n"},{"nr":"9220342","name":"Am Anger","place":"Potsdam","lon":"13.107166","lat":"52.466361","gk4x":"4575347","gk4y":"5815371\n"},{"nr":"9175531","name":"Am Baltenring","place":"Berlin","lon":"13.600777","lat":"52.527682","gk4x":"4608740","gk4y":"5822823\n"},{"nr":"9180529","name":"Am Berg","place":"Berlin","lon":"13.588231","lat":"52.445436","gk4x":"4608090","gk4y":"5813653\n"},{"nr":"9053271","name":"Am Birkenhügel","place":"Berlin","lon":"13.136908","lat":"52.411670","gk4x":"4577464","gk4y":"5809317\n"},{"nr":"9049303","name":"Am Birkenknick","place":"Berlin","lon":"13.266148","lat":"52.415173","gk4x":"4586251","gk4y":"5809853\n"},{"nr":"9027363","name":"Am Bogen","place":"Berlin","lon":"13.159502","lat":"52.552306","gk4x":"4578750","gk4y":"5824990\n"},{"nr":"9080352","name":"Am Brandpfuhl","place":"Berlin","lon":"13.425309","lat":"52.441878","gk4x":"4597021","gk4y":"5813026\n"},{"nr":"9091102","name":"Am Dachsbau","place":"Berlin","lon":"13.229829","lat":"52.606569","gk4x":"4583417","gk4y":"5831107\n"},{"nr":"9094191","name":"Am Dianaplatz","place":"Berlin","lon":"13.314365","lat":"52.605373","gk4x":"4589146","gk4y":"5831075\n"},{"nr":"9210643","name":"Am Egelpfuhl","place":"Dallgow-Döberitz","lon":"13.051049","lat":"52.540638","gk4x":"4571413","gk4y":"5823579\n"},{"nr":"9150514","name":"Am Faulen See","place":"Berlin","lon":"13.494866","lat":"52.550566","gk4x":"4601500","gk4y":"5825215\n"},{"nr":"9230098","name":"Am Fenn","place":"Potsdam","lon":"13.097775","lat":"52.368659","gk4x":"4574874","gk4y":"5804490\n"},{"nr":"9230012","name":"Am Findling","place":"Potsdam","lon":"13.102642","lat":"52.387208","gk4x":"4575174","gk4y":"5806559\n"},{"nr":"9050258","name":"Am Fischtal","place":"Berlin","lon":"13.258355","lat":"52.446505","gk4x":"4585660","gk4y":"5813330\n"},{"nr":"9350863","name":"Am Forum","place":"Bernau","lon":"13.572972","lat":"52.674747","gk4x":"4606496","gk4y":"5839145\n"},{"nr":"9110019","name":"Am Friedrichshain","place":"Berlin","lon":"13.425135","lat":"52.528015","gk4x":"4596820","gk4y":"5822610\n"},{"nr":"9110522","name":"Am Friedrichshain/Hufelandstr.","place":"Berlin","lon":"13.437492","lat":"52.529609","gk4x":"4597655","gk4y":"5822804\n"},{"nr":"9220104","name":"Am Fuchsbau","place":"Kleinmachnow","lon":"13.219468","lat":"52.410380","gk4x":"4583084","gk4y":"5809265\n"},{"nr":"9230038","name":"Am Gehölz","place":"Potsdam","lon":"13.133920","lat":"52.386858","gk4x":"4577304","gk4y":"5806553\n"},{"nr":"9153500","name":"Am Gehrensee","place":"Berlin","lon":"13.564430","lat":"52.572216","gk4x":"4606166","gk4y":"5827724\n"},{"nr":"9067401","name":"Am Gemeindepark","place":"Berlin","lon":"13.355341","lat":"52.429220","gk4x":"4592290","gk4y":"5811526\n"},{"nr":"9311010","name":"Am Goethepark","place":"Schöneiche (bei Berlin)","lon":"13.689702","lat":"52.469886","gk4x":"4614925","gk4y":"5816530\n"},{"nr":"9230159","name":"Am Golfplatz","place":"Potsdam","lon":"13.054701","lat":"52.424853","gk4x":"4571849","gk4y":"5810699\n"},{"nr":"9038252","name":"Am Graben","place":"Berlin","lon":"13.179251","lat":"52.478902","gk4x":"4580223","gk4y":"5816844\n"},{"nr":"9082261","name":"Am Großen Rohrpfuhl","place":"Berlin","lon":"13.494751","lat":"52.412188","gk4x":"4601811","gk4y":"5809818\n"},{"nr":"9053254","name":"Am Großen Wannsee","place":"Berlin","lon":"13.165150","lat":"52.431553","gk4x":"4579350","gk4y":"5811560\n"},{"nr":"9230192","name":"Am Grünen Weg","place":"Potsdam","lon":"13.004175","lat":"52.405467","gk4x":"4568442","gk4y":"5808493\n"},{"nr":"9210115","name":"Am Gutspark","place":"Falkensee","lon":"13.095466","lat":"52.562775","gk4x":"4574389","gk4y":"5826087\n"},{"nr":"9230188","name":"Am Hämphorn","place":"Potsdam","lon":"13.103292","lat":"52.433837","gk4x":"4575139","gk4y":"5811748\n"},{"nr":"9230226","name":"Am Havelblick","place":"Potsdam","lon":"13.065373","lat":"52.386409","gk4x":"4572638","gk4y":"5806432\n"},{"nr":"9051257","name":"Am Hegewinkel","place":"Berlin","lon":"13.263266","lat":"52.453643","gk4x":"4585980","gk4y":"5814130\n"},{"nr":"9070353","name":"Am Heidefriedhof","place":"Berlin","lon":"13.391287","lat":"52.440800","gk4x":"4594710","gk4y":"5812861\n"},{"nr":"9070156","name":"Am Hellespont","place":"Berlin","lon":"13.407146","lat":"52.444675","gk4x":"4595780","gk4y":"5813313\n"},{"nr":"9230166","name":"Am Hirtengraben","place":"Potsdam","lon":"13.137252","lat":"52.362219","gk4x":"4577574","gk4y":"5803815\n"},{"nr":"9220043","name":"Am Hochwald","place":"Kleinmachnow","lon":"13.207611","lat":"52.398117","gk4x":"4582300","gk4y":"5807887\n"},{"nr":"9096152","name":"Am Hügel","place":"Berlin","lon":"13.316589","lat":"52.593890","gk4x":"4589320","gk4y":"5829800\n"},{"nr":"9131529","name":"Am Iderfenngraben","place":"Berlin","lon":"13.392086","lat":"52.582601","gk4x":"4594460","gk4y":"5828640\n"},{"nr":"9096105","name":"Am Kesselpfuhl","place":"Berlin","lon":"13.310182","lat":"52.592820","gk4x":"4588888","gk4y":"5829673\n"},{"nr":"9195012","name":"Am Kiesberg","place":"Berlin","lon":"13.526633","lat":"52.422925","gk4x":"4603955","gk4y":"5811058\n"},{"nr":"9027301","name":"Am Kiesteich","place":"Berlin","lon":"13.165502","lat":"52.551159","gk4x":"4579159","gk4y":"5824869\n"},{"nr":"9053202","name":"Am Kleinen Wannsee","place":"Berlin","lon":"13.167181","lat":"52.420479","gk4x":"4579508","gk4y":"5810330\n"},{"nr":"9176522","name":"Am Kornfeld","place":"Berlin","lon":"13.602007","lat":"52.510464","gk4x":"4608866","gk4y":"5820909\n"},{"nr":"9100038","name":"Am Kupfergraben","place":"Berlin","lon":"13.395391","lat":"52.519418","gk4x":"4594820","gk4y":"5821614\n"},{"nr":"9037171","name":"Am Kurzen Weg","place":"Berlin","lon":"13.145901","lat":"52.539587","gk4x":"4577850","gk4y":"5823560\n"},{"nr":"9230198","name":"Am Küssel","place":"Potsdam","lon":"12.965258","lat":"52.430776","gk4x":"4565756","gk4y":"5811273\n"},{"nr":"9144502","name":"Am Luchgraben","place":"Berlin","lon":"13.504497","lat":"52.596324","gk4x":"4602047","gk4y":"5830320\n"},{"nr":"9230070","name":"Am Moosfenn","place":"Potsdam","lon":"13.095313","lat":"52.363487","gk4x":"4574715","gk4y":"5803912\n"},{"nr":"9230172","name":"Am Neuen Garten/Große Weinmeisterstr.","place":"Potsdam","lon":"13.063409","lat":"52.411609","gk4x":"4572463","gk4y":"5809234\n"},{"nr":"9096406","name":"Am Nordgraben/Oranienburger Str.","place":"Berlin","lon":"13.334691","lat":"52.587396","gk4x":"4590560","gk4y":"5829100\n"},{"nr":"9001202","name":"Am Nordhafen","place":"Berlin","lon":"13.363610","lat":"52.538850","gk4x":"4592622","gk4y":"5823735\n"},{"nr":"9077152","name":"Am Oberhafen","place":"Berlin","lon":"13.450675","lat":"52.465026","gk4x":"4598694","gk4y":"5815636\n"},{"nr":"9032101","name":"Am Omnibushof","place":"Berlin","lon":"13.186240","lat":"52.517620","gk4x":"4580627","gk4y":"5821160\n"},{"nr":"9220338","name":"Am Park","place":"Potsdam","lon":"13.112822","lat":"52.475331","gk4x":"4575716","gk4y":"5816375\n"},{"nr":"9230158","name":"Am Pfingstberg","place":"Potsdam","lon":"13.055261","lat":"52.419986","gk4x":"4571895","gk4y":"5810158\n"},{"nr":"9092102","name":"Am Pilz","place":"Berlin","lon":"13.300761","lat":"52.642415","gk4x":"4588150","gk4y":"5835180\n"},{"nr":"9190508","name":"Am Plänterwald","place":"Berlin","lon":"13.480813","lat":"52.483041","gk4x":"4600701","gk4y":"5817682\n"},{"nr":"9025154","name":"Am Postfenn","place":"Berlin","lon":"13.209539","lat":"52.500731","gk4x":"4582240","gk4y":"5819307\n"},{"nr":"9049356","name":"Am Rehwechsel","place":"Berlin","lon":"13.266928","lat":"52.412109","gk4x":"4586310","gk4y":"5809513\n"},{"nr":"9052351","name":"Am Rohrgarten","place":"Berlin","lon":"13.227203","lat":"52.426432","gk4x":"4583580","gk4y":"5811060\n"},{"nr":"9132524","name":"Am Rollberg","place":"Berlin","lon":"13.392778","lat":"52.595085","gk4x":"4594480","gk4y":"5830030\n"},{"nr":"9176006","name":"Am Rosenhag","place":"Berlin","lon":"13.621801","lat":"52.524763","gk4x":"4610174","gk4y":"5822530\n"},{"nr":"9074153","name":"Am Rötepfuhl","place":"Berlin","lon":"13.420542","lat":"52.415314","gk4x":"4596755","gk4y":"5810064\n"},{"nr":"9310554","name":"Am Rund","place":"Erkner","lon":"13.749042","lat":"52.436155","gk4x":"4619048","gk4y":"5812873\n"},{"nr":"9052152","name":"Am Sandwerder","place":"Berlin","lon":"13.186031","lat":"52.427266","gk4x":"4580778","gk4y":"5811106\n"},{"nr":"9220332","name":"Am Schlahn","place":"Potsdam","lon":"13.094553","lat":"52.468042","gk4x":"4574487","gk4y":"5815545\n"},{"nr":"9230157","name":"Am Schragen","place":"Potsdam","lon":"13.055821","lat":"52.412045","gk4x":"4571946","gk4y":"5809275\n"},{"nr":"9196512","name":"Am Seegraben","place":"Berlin","lon":"13.546659","lat":"52.399072","gk4x":"4605374","gk4y":"5808433\n"},{"nr":"9141506","name":"Am Steinberg","place":"Berlin","lon":"13.433301","lat":"52.558383","gk4x":"4597307","gk4y":"5826000\n"},{"nr":"9135507","name":"Am Stener Berg","place":"Berlin","lon":"13.506525","lat":"52.637774","gk4x":"4602088","gk4y":"5834935\n"},{"nr":"9194001","name":"Am Studio/Köpenicker Str.","place":"Berlin","lon":"13.546152","lat":"52.426581","gk4x":"4605274","gk4y":"5811493\n"},{"nr":"9089454","name":"Am Tegeler Fließ","place":"Berlin","lon":"13.289537","lat":"52.603400","gk4x":"4587468","gk4y":"5830825\n"},{"nr":"9210352","name":"Am Tiefen Grund","place":"Falkensee","lon":"13.087004","lat":"52.570051","gk4x":"4573803","gk4y":"5826888\n"},{"nr":"9161517","name":"Am Tierpark/A.-Kowalke-Str.","place":"Berlin","lon":"13.518667","lat":"52.505874","gk4x":"4603219","gk4y":"5820276\n"},{"nr":"9220316","name":"Am Upstall","place":"Potsdam","lon":"13.014259","lat":"52.474752","gk4x":"4569020","gk4y":"5816212\n"},{"nr":"9220447","name":"Am Urnenfeld","place":"Potsdam","lon":"12.972158","lat":"52.404243","gk4x":"4566265","gk4y":"5808327\n"},{"nr":"9095102","name":"Am Vierrutenberg","place":"Berlin","lon":"13.344142","lat":"52.613657","gk4x":"4591146","gk4y":"5832034\n"},{"nr":"9044102","name":"Am Volkspark","place":"Berlin","lon":"13.320360","lat":"52.483665","gk4x":"4589800","gk4y":"5817540\n"},{"nr":"9051203","name":"Am Waldfriedhof","place":"Berlin","lon":"13.266012","lat":"52.455024","gk4x":"4586164","gk4y":"5814287\n"},{"nr":"9141504","name":"Am Wasserturm","place":"Berlin","lon":"13.435969","lat":"52.565118","gk4x":"4597473","gk4y":"5826753\n"},{"nr":"9350246","name":"Am Wasserturm","place":"Bernau","lon":"13.577845","lat":"52.683606","gk4x":"4606804","gk4y":"5840138\n"},{"nr":"9210646","name":"Am Wasserturm","place":"Dallgow-Döberitz","lon":"13.054619","lat":"52.540759","gk4x":"4571655","gk4y":"5823596\n"},{"nr":"9220000","name":"Am Weiher","place":"Stahnsdorf","lon":"13.213962","lat":"52.384877","gk4x":"4582757","gk4y":"5806421\n"},{"nr":"9220099","name":"Am Weinberg","place":"Kleinmachnow","lon":"13.227492","lat":"52.397696","gk4x":"4583654","gk4y":"5807863\n"},{"nr":"9037161","name":"Am Zeppelinpark","place":"Berlin","lon":"13.127128","lat":"52.528839","gk4x":"4576595","gk4y":"5822344\n"},{"nr":"9064306","name":"Amalienstr.","place":"Berlin","lon":"13.333442","lat":"52.429972","gk4x":"4590799","gk4y":"5811582\n"},{"nr":"9093207","name":"Amandastr.","place":"Berlin","lon":"13.319182","lat":"52.626161","gk4x":"4589430","gk4y":"5833394\n"},{"nr":"9085250","name":"Amendestr.","place":"Berlin","lon":"13.373548","lat":"52.571530","gk4x":"4593227","gk4y":"5827384\n"},{"nr":"9063253","name":"Amfortasweg","place":"Berlin","lon":"13.324475","lat":"52.445738","gk4x":"4590157","gk4y":"5813325\n"},{"nr":"9220031","name":"Amselsteg","place":"Stahnsdorf","lon":"13.199283","lat":"52.381441","gk4x":"4581764","gk4y":"5806022\n"},{"nr":"9024104","name":"Amtsgerichtsplatz","place":"Berlin","lon":"13.295427","lat":"52.506858","gk4x":"4588060","gk4y":"5820090\n"},{"nr":"9230171","name":"Amundsenstr./Nedlitzer Str.","place":"Potsdam","lon":"13.051876","lat":"52.435869","gk4x":"4571639","gk4y":"5811922\n"},{"nr":"9230123","name":"Amundsenstr./Potsdamer Str.","place":"Potsdam","lon":"13.018092","lat":"52.417670","gk4x":"4569370","gk4y":"5809864\n"},{"nr":"9081257","name":"An den Achterhöfen","place":"Berlin","lon":"13.437877","lat":"52.421800","gk4x":"4597920","gk4y":"5810809\n"},{"nr":"9176517","name":"An den Siedlergärten","place":"Berlin","lon":"13.631211","lat":"52.529783","gk4x":"4610800","gk4y":"5823103\n"},{"nr":"9230113","name":"An der Brauerei","place":"Potsdam","lon":"13.107584","lat":"52.357549","gk4x":"4575561","gk4y":"5803264\n"},{"nr":"9092254","name":"An der Buche","place":"Berlin","lon":"13.284393","lat":"52.630893","gk4x":"4587065","gk4y":"5833878\n"},{"nr":"9089391","name":"An der Mühle","place":"Berlin","lon":"13.281021","lat":"52.593831","gk4x":"4586910","gk4y":"5829750\n"},{"nr":"9052203","name":"An der Rehwiese","place":"Berlin","lon":"13.199832","lat":"52.434118","gk4x":"4581704","gk4y":"5811884\n"},{"nr":"9091158","name":"An der Schneise","place":"Berlin","lon":"13.246252","lat":"52.601122","gk4x":"4584540","gk4y":"5830520\n"},{"nr":"9220102","name":"An der Stammbahn","place":"Kleinmachnow","lon":"13.225193","lat":"52.420764","gk4x":"4583454","gk4y":"5810427\n"},{"nr":"9056105","name":"An der Urania","place":"Berlin","lon":"13.346800","lat":"52.501072","gk4x":"4591560","gk4y":"5819510\n"},{"nr":"9220320","name":"An der Windmühle","place":"Potsdam","lon":"12.999633","lat":"52.473619","gk4x":"4568028","gk4y":"5816072\n"},{"nr":"9175506","name":"An der Wuhle","place":"Berlin","lon":"13.565387","lat":"52.485178","gk4x":"4606441","gk4y":"5818041\n"},{"nr":"9120023","name":"Andreasstr./Lange Str.","place":"Berlin","lon":"13.430914","lat":"52.512226","gk4x":"4597247","gk4y":"5820861\n"},{"nr":"9049372","name":"Andréezeile","place":"Berlin","lon":"13.266113","lat":"52.410338","gk4x":"4586258","gk4y":"5809315\n"},{"nr":"9180528","name":"Anemonenstr.","place":"Berlin","lon":"13.593594","lat":"52.444052","gk4x":"4608458","gk4y":"5813507\n"},{"nr":"9132501","name":"Angerweg","place":"Berlin","lon":"13.383936","lat":"52.591756","gk4x":"4593888","gk4y":"5829648\n"},{"nr":"9350247","name":"Anglersruh","place":"Bernau","lon":"13.517538","lat":"52.721960","gk4x":"4602636","gk4y":"5844318\n"},{"nr":"9230079","name":"Anhaltstr.","place":"Potsdam","lon":"13.099605","lat":"52.392072","gk4x":"4574959","gk4y":"5807097\n"},{"nr":"9070405","name":"Ankogelweg","place":"Berlin","lon":"13.398334","lat":"52.419525","gk4x":"4595235","gk4y":"5810503\n"},{"nr":"9150500","name":"Anna-Ebermann-Str.","place":"Berlin","lon":"13.512120","lat":"52.554975","gk4x":"4602660","gk4y":"5825730\n"},{"nr":"9193504","name":"Anna-Seghers-Str.","place":"Berlin","lon":"13.543863","lat":"52.435544","gk4x":"4605097","gk4y":"5812487\n"},{"nr":"9220015","name":"Annastr.","place":"Stahnsdorf","lon":"13.231430","lat":"52.384004","gk4x":"4583948","gk4y":"5806344\n"},{"nr":"9195506","name":"Anne-Frank-Str.","place":"Berlin","lon":"13.534417","lat":"52.409154","gk4x":"4604517","gk4y":"5809537\n"},{"nr":"9038151","name":"Annenweg","place":"Berlin","lon":"13.173755","lat":"52.481455","gk4x":"4579845","gk4y":"5817122\n"},{"nr":"9184505","name":"Annweilerweg","place":"Berlin","lon":"13.667316","lat":"52.414957","gk4x":"4613545","gk4y":"5810383\n"},{"nr":"9140011","name":"Antonplatz","place":"Berlin","lon":"13.450855","lat":"52.548283","gk4x":"4598520","gk4y":"5824900\n"},{"nr":"9160510","name":"Anton-Saefkow-Platz","place":"Berlin","lon":"13.468877","lat":"52.528181","gk4x":"4599788","gk4y":"5822688\n"},{"nr":"9009156","name":"Antwerpener Str.","place":"Berlin","lon":"13.348701","lat":"52.548683","gk4x":"4591590","gk4y":"5824810\n"},{"nr":"9230220","name":"Apfelweg","place":"Potsdam","lon":"13.039465","lat":"52.421492","gk4x":"4570818","gk4y":"5810310\n"},{"nr":"9066301","name":"Appenzeller Str.","place":"Berlin","lon":"13.298506","lat":"52.421913","gk4x":"4588439","gk4y":"5810642\n"},{"nr":"9210349","name":"Arcostr.","place":"Falkensee","lon":"13.083706","lat":"52.558911","gk4x":"4573598","gk4y":"5825645\n"},{"nr":"9160515","name":"Arendsweg","place":"Berlin","lon":"13.505564","lat":"52.534882","gk4x":"4602262","gk4y":"5823485\n"},{"nr":"9087154","name":"Aristide-Briand-Brücke","place":"Berlin","lon":"13.306382","lat":"52.554388","gk4x":"4588708","gk4y":"5825392\n"},{"nr":"9133014","name":"Arkenberge","place":"Berlin","lon":"13.400543","lat":"52.639570","gk4x":"4594910","gk4y":"5834990\n"},{"nr":"9171504","name":"Arnfriedstr.","place":"Berlin","lon":"13.560178","lat":"52.484411","gk4x":"4606089","gk4y":"5817948\n"},{"nr":"9083103","name":"Arnikaweg","place":"Berlin","lon":"13.477677","lat":"52.429892","gk4x":"4600609","gk4y":"5811764\n"},{"nr":"9051353","name":"Arnimallee","place":"Berlin","lon":"13.299357","lat":"52.457844","gk4x":"4588425","gk4y":"5814641\n"},{"nr":"9152509","name":"Arnimstr.","place":"Berlin","lon":"13.514811","lat":"52.558617","gk4x":"4602834","gk4y":"5826139\n"},{"nr":"9130510","name":"Arnold-Zweig-Str.","place":"Berlin","lon":"13.421840","lat":"52.562835","gk4x":"4596520","gk4y":"5826480\n"},{"nr":"9134513","name":"Arnouxstr.","place":"Berlin","lon":"13.424640","lat":"52.607333","gk4x":"4596612","gk4y":"5831435\n"},{"nr":"9110025","name":"Arnswalder Platz","place":"Berlin","lon":"13.437388","lat":"52.534095","gk4x":"4597638","gk4y":"5823303\n"},{"nr":"9085101","name":"Aroser Allee/Gotthardstr.","place":"Berlin","lon":"13.351240","lat":"52.567500","gk4x":"4591723","gk4y":"5826907\n"},{"nr":"9210617","name":"Artilleriepark","place":"Dallgow-Döberitz","lon":"13.061201","lat":"52.533736","gk4x":"4572113","gk4y":"5822821\n"},{"nr":"9070457","name":"Asbestweg","place":"Berlin","lon":"13.415179","lat":"52.421328","gk4x":"4596377","gk4y":"5810726\n"},{"nr":"9083205","name":"Ascherslebener Weg","place":"Berlin","lon":"13.479809","lat":"52.410579","gk4x":"4600798","gk4y":"5809618\n"},{"nr":"9027263","name":"Ashdodstr.","place":"Berlin","lon":"13.220608","lat":"52.560049","gk4x":"4582880","gk4y":"5825920\n"},{"nr":"9029155","name":"Askanierring","place":"Berlin","lon":"13.193387","lat":"52.545947","gk4x":"4581060","gk4y":"5824320\n"},{"nr":"9066151","name":"Asternplatz","place":"Berlin","lon":"13.303920","lat":"52.449444","gk4x":"4588752","gk4y":"5813712\n"},{"nr":"9210353","name":"Asternplatz","place":"Falkensee","lon":"13.082704","lat":"52.568545","gk4x":"4573514","gk4y":"5826716\n"},{"nr":"9220119","name":"Asternstr.","place":"Teltow","lon":"13.264230","lat":"52.388205","gk4x":"4586173","gk4y":"5806850\n"},{"nr":"9068341","name":"Attilaplatz","place":"Berlin","lon":"13.375858","lat":"52.455846","gk4x":"4593629","gk4y":"5814515\n"},{"nr":"9160530","name":"Atzpodienstr./U Magdalenenstr.","place":"Berlin","lon":"13.492512","lat":"52.512058","gk4x":"4601429","gk4y":"5820927\n"},{"nr":"9134012","name":"Aubertstr.","place":"Berlin","lon":"13.415639","lat":"52.608384","gk4x":"4596000","gk4y":"5831540\n"},{"nr":"9230063","name":"Auf dem Kiewitt","place":"Potsdam","lon":"13.038572","lat":"52.394745","gk4x":"4570800","gk4y":"5807333\n"},{"nr":"9230247","name":"Auf dem Kiewitt/Fähre","place":"Potsdam","lon":"13.039223","lat":"52.389320","gk4x":"4570853","gk4y":"5806730\n"},{"nr":"9074264","name":"Augsburger Str.","place":"Berlin","lon":"13.418505","lat":"52.383910","gk4x":"4596685","gk4y":"5806567\n"},{"nr":"9350248","name":"August-Bebel-Str.","place":"Bernau","lon":"13.590733","lat":"52.681367","gk4x":"4607681","gk4y":"5839908\n"},{"nr":"9086106","name":"Auguste-Viktoria-A./Humboldtstr.","place":"Berlin","lon":"13.329850","lat":"52.568847","gk4x":"4590270","gk4y":"5827030\n"},{"nr":"9086156","name":"Auguste-Viktoria-Allee/Quäkerstr.","place":"Berlin","lon":"13.308515","lat":"52.572060","gk4x":"4588817","gk4y":"5827361\n"},{"nr":"9060154","name":"Auguste-Viktoria-Klinikum","place":"Berlin","lon":"13.344687","lat":"52.463206","gk4x":"4591495","gk4y":"5815294\n"},{"nr":"9083204","name":"August-Froehlich-Str.","place":"Berlin","lon":"13.514047","lat":"52.424165","gk4x":"4603096","gk4y":"5811178\n"},{"nr":"9175518","name":"Aurorafalterweg","place":"Berlin","lon":"13.561380","lat":"52.501310","gk4x":"4606130","gk4y":"5819830\n"},{"nr":"9210633","name":"Ausbau","place":"Dallgow-Döberitz","lon":"13.110227","lat":"52.520138","gk4x":"4575463","gk4y":"5821358\n"},{"nr":"9038256","name":"Außenweg","place":"Berlin","lon":"13.135535","lat":"52.485180","gk4x":"4577242","gk4y":"5817495\n"},{"nr":"9310555","name":"Autobahn","place":"Erkner","lon":"13.779792","lat":"52.423383","gk4x":"4621174","gk4y":"5811503\n"},{"nr":"9210834","name":"B.-Lichtenberg-Str.","place":"Teltow","lon":"13.276443","lat":"52.400108","gk4x":"4586981","gk4y":"5808189\n"},{"nr":"9051254","name":"Bachstelzenweg","place":"Berlin","lon":"13.284006","lat":"52.458632","gk4x":"4587380","gk4y":"5814710\n"},{"nr":"9003105","name":"Bachstr.","place":"Berlin","lon":"13.339573","lat":"52.518598","gk4x":"4591033","gk4y":"5821451\n"},{"nr":"9350249","name":"Bäckerei","place":"Bernau","lon":"13.570649","lat":"52.674301","gk4x":"4606340","gk4y":"5839092\n"},{"nr":"9068153","name":"Badener Ring","place":"Berlin","lon":"13.377443","lat":"52.482106","gk4x":"4593681","gk4y":"5817439\n"},{"nr":"9052156","name":"Badeweg","place":"Berlin","lon":"13.186467","lat":"52.431997","gk4x":"4580799","gk4y":"5811633\n"},{"nr":"9220401","name":"Badstr.","place":"Teltow","lon":"13.264049","lat":"52.403944","gk4x":"4586130","gk4y":"5808601\n"},{"nr":"9210007","name":"Bahnhof","place":"Dallgow-Döberitz","lon":"13.059633","lat":"52.543285","gk4x":"4571991","gk4y":"5823882\n"},{"nr":"9210010","name":"Bahnhof","place":"Falkensee","lon":"13.089365","lat":"52.559982","gk4x":"4573980","gk4y":"5825770\n"},{"nr":"9220001","name":"Bahnhof","place":"Teltow","lon":"13.299594","lat":"52.388450","gk4x":"4588580","gk4y":"5806920\n"},{"nr":"9220012","name":"Bahnhof Marquardt","place":"Potsdam","lon":"12.971669","lat":"52.458826","gk4x":"4566150","gk4y":"5814400\n"},{"nr":"9350860","name":"Bahnhofs-Passage","place":"Bernau","lon":"13.597436","lat":"52.677421","gk4x":"4608144","gk4y":"5839479\n"},{"nr":"9064104","name":"Bahnhofstr.","place":"Berlin","lon":"13.318081","lat":"52.432086","gk4x":"4589750","gk4y":"5811798\n"},{"nr":"9220017","name":"Bahnhofstr.","place":"Stahnsdorf","lon":"13.193497","lat":"52.384699","gk4x":"4581364","gk4y":"5806378\n"},{"nr":"9180008","name":"Bahnhofstr./Lindenstr.","place":"Berlin","lon":"13.572409","lat":"52.450914","gk4x":"4607001","gk4y":"5814239\n"},{"nr":"9180009","name":"Bahnhofstr./Seelenbinderstr.","place":"Berlin","lon":"13.576879","lat":"52.455393","gk4x":"4607294","gk4y":"5814744\n"},{"nr":"9350143","name":"Bahnstr.","place":"Ahrensfelde","lon":"13.573496","lat":"52.580688","gk4x":"4606760","gk4y":"5828680\n"},{"nr":"9066408","name":"Bäkestr.","place":"Berlin","lon":"13.313328","lat":"52.435392","gk4x":"4589420","gk4y":"5812160\n"},{"nr":"9161513","name":"Balatonstr.","place":"Berlin","lon":"13.507705","lat":"52.498465","gk4x":"4602492","gk4y":"5819436\n"},{"nr":"9074155","name":"Baldersheimer Weg","place":"Berlin","lon":"13.419189","lat":"52.412095","gk4x":"4596670","gk4y":"5809704\n"},{"nr":"9143511","name":"Ballonplatz","place":"Berlin","lon":"13.484070","lat":"52.622052","gk4x":"4600604","gk4y":"5833154\n"},{"nr":"9037251","name":"Baluschekweg","place":"Berlin","lon":"13.166358","lat":"52.523983","gk4x":"4579266","gk4y":"5821846\n"},{"nr":"9069254","name":"Bambachstr.","place":"Berlin","lon":"13.426729","lat":"52.465794","gk4x":"4597065","gk4y":"5815689\n"},{"nr":"9055108","name":"Bamberger Str.","place":"Berlin","lon":"13.336593","lat":"52.494717","gk4x":"4590880","gk4y":"5818790\n"},{"nr":"9210359","name":"Bandelowstr.","place":"Falkensee","lon":"13.080112","lat":"52.568083","gk4x":"4573339","gk4y":"5826662\n"},{"nr":"9055151","name":"Barbarossastr.","place":"Berlin","lon":"13.345164","lat":"52.491861","gk4x":"4591468","gk4y":"5818483\n"},{"nr":"9180538","name":"Bärenlauchstr.","place":"Berlin","lon":"13.539061","lat":"52.450913","gk4x":"4604734","gk4y":"5814190\n"},{"nr":"9210104","name":"Barkhausenstr.","place":"Falkensee","lon":"13.088831","lat":"52.555664","gk4x":"4573951","gk4y":"5825289\n"},{"nr":"9074204","name":"Barnetstr./Steinstr.","place":"Berlin","lon":"13.398653","lat":"52.395704","gk4x":"4595308","gk4y":"5807853\n"},{"nr":"9350821","name":"Barnim-Gymnasium","place":"Bernau","lon":"13.543530","lat":"52.706059","gk4x":"4604430","gk4y":"5842586\n"},{"nr":"9170011","name":"Barnimplatz","place":"Berlin","lon":"13.573698","lat":"52.567806","gk4x":"4606805","gk4y":"5827247\n"},{"nr":"9151010","name":"Barther Str.","place":"Berlin","lon":"13.498475","lat":"52.563435","gk4x":"4601715","gk4y":"5826652\n"},{"nr":"9066451","name":"Baseler Str.","place":"Berlin","lon":"13.295398","lat":"52.437756","gk4x":"4588196","gk4y":"5812401\n"},{"nr":"9220302","name":"Bassewitz","place":"Potsdam","lon":"13.046153","lat":"52.449374","gk4x":"4571228","gk4y":"5813419\n"},{"nr":"9068106","name":"Bäumerplan","place":"Berlin","lon":"13.375575","lat":"52.476035","gk4x":"4593567","gk4y":"5816761\n"},{"nr":"9191513","name":"Baumschulenstr./Fähre","place":"Berlin","lon":"13.494787","lat":"52.471882","gk4x":"4601676","gk4y":"5816460\n"},{"nr":"9194513","name":"Baumschulenstr./Königsheideweg","place":"Berlin","lon":"13.475436","lat":"52.456101","gk4x":"4600397","gk4y":"5814677\n"},{"nr":"9191003","name":"Baumschulenstr./Neue Krugallee","place":"Berlin","lon":"13.491323","lat":"52.469095","gk4x":"4601447","gk4y":"5816145\n"},{"nr":"9230196","name":"Baumschulenweg","place":"Potsdam","lon":"12.990345","lat":"52.404703","gk4x":"4567502","gk4y":"5808395\n"},{"nr":"9175541","name":"Bausdorfstr./Landrestr.","place":"Berlin","lon":"13.601023","lat":"52.512571","gk4x":"4608794","gk4y":"5821142\n"},{"nr":"9073254","name":"Baußnernweg","place":"Berlin","lon":"13.356449","lat":"52.405453","gk4x":"4592415","gk4y":"5808883\n"},{"nr":"9068156","name":"Bayernring","place":"Berlin","lon":"13.381240","lat":"52.482565","gk4x":"4593938","gk4y":"5817495\n"},{"nr":"9005156","name":"Bayreuther Str.","place":"Berlin","lon":"13.343958","lat":"52.504430","gk4x":"4591360","gk4y":"5819880\n"},{"nr":"9230217","name":"Bayrisches Haus","place":"Potsdam","lon":"12.994107","lat":"52.368804","gk4x":"4567813","gk4y":"5804404\n"},{"nr":"9190006","name":"Beermannstr.","place":"Berlin","lon":"13.457072","lat":"52.491191","gk4x":"4599070","gk4y":"5818556\n"},{"nr":"9027364","name":"Beerwinkel","place":"Berlin","lon":"13.162054","lat":"52.551786","gk4x":"4578924","gk4y":"5824935\n"},{"nr":"9049301","name":"Beeskowdamm","place":"Berlin","lon":"13.267298","lat":"52.409652","gk4x":"4586340","gk4y":"5809240\n"},{"nr":"9220118","name":"Beethovenstr.","place":"Teltow","lon":"13.284054","lat":"52.393527","gk4x":"4587512","gk4y":"5807466\n"},{"nr":"9210831","name":"Beethovenstr./Kita","place":"Teltow","lon":"13.282239","lat":"52.387687","gk4x":"4587400","gk4y":"5806814\n"},{"nr":"9210830","name":"Beethovenstr./Post","place":"Teltow","lon":"13.281748","lat":"52.387477","gk4x":"4587367","gk4y":"5806790\n"},{"nr":"9140506","name":"Behaimstr.","place":"Berlin","lon":"13.446280","lat":"52.549948","gk4x":"4598206","gk4y":"5825079\n"},{"nr":"9100543","name":"Behrenstr./Wilhelmstr.","place":"Berlin","lon":"13.381830","lat":"52.514508","gk4x":"4593910","gk4y":"5821050\n"},{"nr":"9049103","name":"Behring-Krankenhaus","place":"Berlin","lon":"13.251681","lat":"52.423838","gk4x":"4585250","gk4y":"5810800\n"},{"nr":"9082293","name":"Beifußweg","place":"Berlin","lon":"13.473825","lat":"52.438263","gk4x":"4600328","gk4y":"5812690\n"},{"nr":"9171515","name":"Beilsteiner Str.","place":"Berlin","lon":"13.530116","lat":"52.525499","gk4x":"4603950","gk4y":"5822476\n"},{"nr":"9091156","name":"Bekassinenweg","place":"Berlin","lon":"13.232892","lat":"52.605234","gk4x":"4583627","gk4y":"5830962\n"},{"nr":"9180532","name":"Bellevuepark","place":"Berlin","lon":"13.584663","lat":"52.451748","gk4x":"4607832","gk4y":"5814350\n"},{"nr":"9180013","name":"Bellevuestr.","place":"Berlin","lon":"13.594022","lat":"52.453042","gk4x":"4608465","gk4y":"5814508\n"},{"nr":"9073181","name":"Belßstr./Marienfelder Allee","place":"Berlin","lon":"13.372549","lat":"52.425157","gk4x":"4593469","gk4y":"5811096\n"},{"nr":"9170502","name":"Belziger Ring","place":"Berlin","lon":"13.579056","lat":"52.563385","gk4x":"4607179","gk4y":"5826763\n"},{"nr":"9092255","name":"Benediktinerstr.","place":"Berlin","lon":"13.272945","lat":"52.630855","gk4x":"4586290","gk4y":"5833860\n"},{"nr":"9039163","name":"Benfeyweg","place":"Berlin","lon":"13.123904","lat":"52.457422","gk4x":"4576500","gk4y":"5814394\n"},{"nr":"9150503","name":"Bennostr.","place":"Berlin","lon":"13.517080","lat":"52.552153","gk4x":"4603003","gk4y":"5825423\n"},{"nr":"9171526","name":"Bentschener Weg","place":"Berlin","lon":"13.545245","lat":"52.516162","gk4x":"4604999","gk4y":"5821459\n"},{"nr":"9191510","name":"Bergaustr.","place":"Berlin","lon":"13.480548","lat":"52.472547","gk4x":"4600707","gk4y":"5816514\n"},{"nr":"9069204","name":"Bergholzstr.","place":"Berlin","lon":"13.417039","lat":"52.460069","gk4x":"4596419","gk4y":"5815039\n"},{"nr":"9017151","name":"Bergmannstr.","place":"Berlin","lon":"13.386511","lat":"52.490071","gk4x":"4594280","gk4y":"5818337\n"},{"nr":"9132525","name":"Bergrutenpfad","place":"Berlin","lon":"13.387061","lat":"52.596788","gk4x":"4594089","gk4y":"5830212\n"},{"nr":"9093103","name":"Bergstr.","place":"Berlin","lon":"13.297158","lat":"52.625523","gk4x":"4587940","gk4y":"5833296\n"},{"nr":"9310556","name":"Bergstr.","place":"Erkner","lon":"13.751670","lat":"52.410825","gk4x":"4619295","gk4y":"5810059\n"},{"nr":"9220025","name":"Bergstr.","place":"Stahnsdorf","lon":"13.203367","lat":"52.382019","gk4x":"4582041","gk4y":"5806091\n"},{"nr":"9046301","name":"Berkaer Str./Breite Str.","place":"Berlin","lon":"13.290644","lat":"52.475330","gk4x":"4587798","gk4y":"5816576\n"},{"nr":"9140006","name":"Berliner Allee/Indira-Gandhi-Str.","place":"Berlin","lon":"13.465513","lat":"52.551922","gk4x":"4599506","gk4y":"5825325\n"},{"nr":"9140013","name":"Berliner Allee/Rennbahnstr.","place":"Berlin","lon":"13.465391","lat":"52.557549","gk4x":"4599485","gk4y":"5825951\n"},{"nr":"9019158","name":"Berliner Großmarkt","place":"Berlin","lon":"13.327005","lat":"52.536651","gk4x":"4590143","gk4y":"5823444\n"},{"nr":"9100045","name":"Berliner Rathaus","place":"Berlin","lon":"13.408876","lat":"52.517245","gk4x":"4595740","gk4y":"5821390\n"},{"nr":"9133501","name":"Berliner Str.","place":"Berlin","lon":"13.394280","lat":"52.619153","gk4x":"4594530","gk4y":"5832710\n"},{"nr":"9350861","name":"Berliner Str.","place":"Bernau","lon":"13.589695","lat":"52.678029","gk4x":"4607619","gk4y":"5839535\n"},{"nr":"9310399","name":"Berliner Str.","place":"Erkner","lon":"13.745493","lat":"52.427463","gk4x":"4618830","gk4y":"5811900\n"},{"nr":"9141502","name":"Berliner Str./Wiesenstr.","place":"Berlin","lon":"13.434844","lat":"52.562265","gk4x":"4597403","gk4y":"5826434\n"},{"nr":"9068203","name":"Berlinickeplatz","place":"Berlin","lon":"13.378098","lat":"52.466326","gk4x":"4593759","gk4y":"5815684\n"},{"nr":"9046353","name":"Bernadottestr.","place":"Berlin","lon":"13.289331","lat":"52.467669","gk4x":"4587724","gk4y":"5815722\n"},{"nr":"9066355","name":"Berner Str.","place":"Berlin","lon":"13.292810","lat":"52.432724","gk4x":"4588030","gk4y":"5811838\n"},{"nr":"9160509","name":"Bernhard-Bästlein-Str.","place":"Berlin","lon":"13.483284","lat":"52.526725","gk4x":"4600769","gk4y":"5822546\n"},{"nr":"9096251","name":"Bernshausener Ring","place":"Berlin","lon":"13.331470","lat":"52.602800","gk4x":"4590310","gk4y":"5830810\n"},{"nr":"9120516","name":"Bersarinplatz","place":"Berlin","lon":"13.453016","lat":"52.519101","gk4x":"4598732","gk4y":"5821656\n"},{"nr":"9058171","name":"Bessemerstr.","place":"Berlin","lon":"13.366504","lat":"52.459729","gk4x":"4592985","gk4y":"5814935\n"},{"nr":"9032481","name":"Betckestr.","place":"Berlin","lon":"13.197794","lat":"52.521009","gk4x":"4581405","gk4y":"5821550\n"},{"nr":"9014107","name":"Bethaniendamm","place":"Berlin","lon":"13.428439","lat":"52.507214","gk4x":"4597090","gk4y":"5820300\n"},{"nr":"9180521","name":"Betonwerk","place":"Berlin","lon":"13.572210","lat":"52.429230","gk4x":"4607040","gk4y":"5811826\n"},{"nr":"9080181","name":"Betriebshof Britz","place":"Berlin","lon":"13.436672","lat":"52.452561","gk4x":"4597770","gk4y":"5814230\n"},{"nr":"9150518","name":"Betriebshof Indira-Gandhi-Str.","place":"Berlin","lon":"13.468636","lat":"52.544352","gk4x":"4599735","gk4y":"5824487\n"},{"nr":"9180514","name":"Betriebshof Köpenick","place":"Berlin","lon":"13.581879","lat":"52.439329","gk4x":"4607673","gk4y":"5812964\n"},{"nr":"9160522","name":"Betriebshof Lichtenberg","place":"Berlin","lon":"13.499382","lat":"52.519988","gk4x":"4601877","gk4y":"5821819\n"},{"nr":"9170010","name":"Betriebshof Marzahn","place":"Berlin","lon":"13.583714","lat":"52.549006","gk4x":"4607530","gk4y":"5825170\n"},{"nr":"9181005","name":"Betriebshof Schöneweide","place":"Berlin","lon":"13.508836","lat":"52.463525","gk4x":"4602650","gk4y":"5815550\n"},{"nr":"9230405","name":"Betriebshof ViP","place":"Potsdam","lon":"13.114261","lat":"52.375542","gk4x":"4575985","gk4y":"5805273\n"},{"nr":"9140004","name":"Betriebshof Weißensee","place":"Berlin","lon":"13.468983","lat":"52.556939","gk4x":"4599730","gk4y":"5825888\n"},{"nr":"9143502","name":"Beuthener Str.","place":"Berlin","lon":"13.476182","lat":"52.605308","gk4x":"4600108","gk4y":"5831280\n"},{"nr":"9220365","name":"Bhf Golm/Universität","place":"Potsdam","lon":"12.972765","lat":"52.409127","gk4x":"4566299","gk4y":"5808871\n"},{"nr":"9032253","name":"Biberburg","place":"Berlin","lon":"13.180046","lat":"52.498144","gk4x":"4580242","gk4y":"5818986\n"},{"nr":"9171525","name":"Biesdorfer Promenade","place":"Berlin","lon":"13.555633","lat":"52.518722","gk4x":"4605698","gk4y":"5821759\n"},{"nr":"9083250","name":"Bildhauerweg","place":"Berlin","lon":"13.490566","lat":"52.419718","gk4x":"4601509","gk4y":"5810650\n"},{"nr":"9161519","name":"Bildungs- und Verwaltungszentrum","place":"Berlin","lon":"13.526534","lat":"52.510168","gk4x":"4603743","gk4y":"5820765\n"},{"nr":"9350941","name":"Bildungseinrichtung","place":"Bernau","lon":"13.625269","lat":"52.696248","gk4x":"4609979","gk4y":"5841616\n"},{"nr":"9066251","name":"Billy-Wilder-Promenade","place":"Berlin","lon":"13.287081","lat":"52.417796","gk4x":"4587670","gk4y":"5810170\n"},{"nr":"9045160","name":"Binger Str.","place":"Berlin","lon":"13.309572","lat":"52.472371","gk4x":"4589090","gk4y":"5816270\n"},{"nr":"9130517","name":"Binzstr.","place":"Berlin","lon":"13.427139","lat":"52.564335","gk4x":"4596876","gk4y":"5826654\n"},{"nr":"9044205","name":"Birger-Forell-Platz","place":"Berlin","lon":"13.320363","lat":"52.481805","gk4x":"4589804","gk4y":"5817333\n"},{"nr":"9063202","name":"Birkbuschstr./Klingsorstr.","place":"Berlin","lon":"13.326353","lat":"52.447523","gk4x":"4590281","gk4y":"5813526\n"},{"nr":"9074291","name":"Birkenhaag","place":"Berlin","lon":"13.416910","lat":"52.377691","gk4x":"4596590","gk4y":"5805873\n"},{"nr":"9230056","name":"Birkenstr./Alleestr.","place":"Potsdam","lon":"13.061473","lat":"52.409352","gk4x":"4572335","gk4y":"5808981\n"},{"nr":"9002254","name":"Birkenstr./Rathenower Str.","place":"Berlin","lon":"13.352907","lat":"52.529654","gk4x":"4591915","gk4y":"5822698\n"},{"nr":"9220333","name":"Birkenweg","place":"Potsdam","lon":"13.101782","lat":"52.468775","gk4x":"4574977","gk4y":"5815634\n"},{"nr":"9082294","name":"Birkhuhnweg","place":"Berlin","lon":"13.471732","lat":"52.436357","gk4x":"4600190","gk4y":"5812475\n"},{"nr":"9230034","name":"Bisamkiez","place":"Potsdam","lon":"13.101298","lat":"52.373318","gk4x":"4575106","gk4y":"5805012\n"},{"nr":"9048152","name":"Bismarckplatz","place":"Berlin","lon":"13.284947","lat":"52.491937","gk4x":"4587378","gk4y":"5818417\n"},{"nr":"9063104","name":"Bismarckstr./Bergstr.","place":"Berlin","lon":"13.339175","lat":"52.458550","gk4x":"4591130","gk4y":"5814769\n"},{"nr":"9022106","name":"Bismarckstr./Kaiser-Friedrich-Str.","place":"Berlin","lon":"13.301597","lat":"52.511284","gk4x":"4588470","gk4y":"5820590\n"},{"nr":"9024208","name":"Bismarckstr./Leibnizstr.","place":"Berlin","lon":"13.314776","lat":"52.512127","gk4x":"4589363","gk4y":"5820700\n"},{"nr":"9051358","name":"Bitscher Str.","place":"Berlin","lon":"13.277383","lat":"52.450426","gk4x":"4586946","gk4y":"5813789\n"},{"nr":"9170534","name":"Bitterfelder Str./Wolfener Str.","place":"Berlin","lon":"13.545324","lat":"52.553665","gk4x":"4604915","gk4y":"5825632\n"},{"nr":"9110010","name":"Björnsonstr.","place":"Berlin","lon":"13.403534","lat":"52.554381","gk4x":"4595297","gk4y":"5825515\n"},{"nr":"9064200","name":"Blanckertzweg","place":"Berlin","lon":"13.319145","lat":"52.418952","gk4x":"4589849","gk4y":"5810338\n"},{"nr":"9142530","name":"Blankenburger Pflasterweg","place":"Berlin","lon":"13.455717","lat":"52.588252","gk4x":"4598760","gk4y":"5829354\n"},{"nr":"9131518","name":"Blankenburger Str./Grumbkowstr.","place":"Berlin","lon":"13.423498","lat":"52.585795","gk4x":"4596582","gk4y":"5829037\n"},{"nr":"9134506","name":"Blankenburger Weg","place":"Berlin","lon":"13.436525","lat":"52.592495","gk4x":"4597450","gk4y":"5829800\n"},{"nr":"9133011","name":"Blankenfelde Kirche","place":"Berlin","lon":"13.390851","lat":"52.618115","gk4x":"4594300","gk4y":"5832590\n"},{"nr":"9134500","name":"Blankenfelder Str.","place":"Berlin","lon":"13.431514","lat":"52.601732","gk4x":"4597090","gk4y":"5830821\n"},{"nr":"9067351","name":"Blankenhainer Str.","place":"Berlin","lon":"13.349197","lat":"52.422064","gk4x":"4591887","gk4y":"5810722\n"},{"nr":"9037208","name":"Blasewitzer Ring","place":"Berlin","lon":"13.174926","lat":"52.522586","gk4x":"4579850","gk4y":"5821700\n"},{"nr":"9023351","name":"Bleibtreustr.","place":"Berlin","lon":"13.320165","lat":"52.501732","gk4x":"4589750","gk4y":"5819550\n"},{"nr":"9096291","name":"Blitzenroder Ring","place":"Berlin","lon":"13.338790","lat":"52.605684","gk4x":"4590800","gk4y":"5831140\n"},{"nr":"9162005","name":"Blockdammweg","place":"Berlin","lon":"13.505273","lat":"52.484179","gk4x":"4602360","gk4y":"5817843\n"},{"nr":"9162504","name":"Blockdammweg/Ehrlichstr.","place":"Berlin","lon":"13.511045","lat":"52.484186","gk4x":"4602752","gk4y":"5817852\n"},{"nr":"9074209","name":"Blohmstr./Illigstr.","place":"Berlin","lon":"13.387399","lat":"52.388674","gk4x":"4594557","gk4y":"5807056\n"},{"nr":"9012152","name":"Blücherstr.","place":"Berlin","lon":"13.395386","lat":"52.496015","gk4x":"4594870","gk4y":"5819010\n"},{"nr":"9350251","name":"Blumberger Chaussee","place":"Bernau","lon":"13.583531","lat":"52.667452","gk4x":"4607228","gk4y":"5838349\n"},{"nr":"9170014","name":"Blumberger Damm/Eisenacher Str.","place":"Berlin","lon":"13.570736","lat":"52.540641","gk4x":"4606670","gk4y":"5824220\n"},{"nr":"9170015","name":"Blumberger Damm/Elisabethstr.","place":"Berlin","lon":"13.566101","lat":"52.534249","gk4x":"4606371","gk4y":"5823502\n"},{"nr":"9170510","name":"Blumberger Damm/Mehrower Allee","place":"Berlin","lon":"13.573738","lat":"52.555331","gk4x":"4606838","gk4y":"5825859\n"},{"nr":"9068103","name":"Boelckestr./Hoeppnerstr.","place":"Berlin","lon":"13.377906","lat":"52.472449","gk4x":"4593733","gk4y":"5816365\n"},{"nr":"9064102","name":"Bogenstr.","place":"Berlin","lon":"13.316581","lat":"52.425641","gk4x":"4589661","gk4y":"5811079\n"},{"nr":"9196509","name":"Bohnsdorf Kirche","place":"Berlin","lon":"13.555148","lat":"52.399401","gk4x":"4605951","gk4y":"5808482\n"},{"nr":"9186509","name":"Bohnsdorfer Str.","place":"Berlin","lon":"13.572291","lat":"52.423243","gk4x":"4607060","gk4y":"5811160\n"},{"nr":"9195003","name":"Bohnsdorfer Weg","place":"Berlin","lon":"13.539046","lat":"52.417174","gk4x":"4604813","gk4y":"5810436\n"},{"nr":"9049203","name":"Bolchener Str.","place":"Berlin","lon":"13.275742","lat":"52.433862","gk4x":"4586867","gk4y":"5811944\n"},{"nr":"9089403","name":"Bollestr.","place":"Berlin","lon":"13.298508","lat":"52.591304","gk4x":"4588100","gk4y":"5829490\n"},{"nr":"9064103","name":"Boothstr.","place":"Berlin","lon":"13.321861","lat":"52.436034","gk4x":"4589999","gk4y":"5812242\n"},{"nr":"9120536","name":"Bootsbauerstr.","place":"Berlin","lon":"13.473248","lat":"52.495879","gk4x":"4600158","gk4y":"5819100\n"},{"nr":"9029106","name":"Borchertweg","place":"Berlin","lon":"13.193104","lat":"52.543650","gk4x":"4581045","gk4y":"5824064\n"},{"nr":"9130506","name":"Borkumstr.","place":"Berlin","lon":"13.413189","lat":"52.564377","gk4x":"4595930","gk4y":"5826640\n"},{"nr":"9029104","name":"Borkzeile","place":"Berlin","lon":"13.190334","lat":"52.536632","gk4x":"4580870","gk4y":"5823280\n"},{"nr":"9074267","name":"Bornhagenweg","place":"Berlin","lon":"13.412403","lat":"52.390598","gk4x":"4596255","gk4y":"5807303\n"},{"nr":"9350859","name":"Börnicker Chaussee","place":"Bernau","lon":"13.602364","lat":"52.676312","gk4x":"4608480","gk4y":"5839363\n"},{"nr":"9350252","name":"Börnicker Landweg","place":"Bernau","lon":"13.602257","lat":"52.654412","gk4x":"4608527","gk4y":"5836926\n"},{"nr":"9160547","name":"Bornitzstr.","place":"Berlin","lon":"13.497963","lat":"52.520284","gk4x":"4601780","gk4y":"5821850\n"},{"nr":"9160546","name":"Bornitzstr./Ruschestr.","place":"Berlin","lon":"13.486046","lat":"52.520794","gk4x":"4600970","gk4y":"5821890\n"},{"nr":"9140015","name":"Borodinstr.","place":"Berlin","lon":"13.451851","lat":"52.547192","gk4x":"4598590","gk4y":"5824780\n"},{"nr":"9350944","name":"Borsig-Str.","place":"Bernau","lon":"13.565903","lat":"52.687503","gk4x":"4605987","gk4y":"5840554\n"},{"nr":"9096104","name":"Borsigwalder Weg","place":"Berlin","lon":"13.298019","lat":"52.584749","gk4x":"4588080","gk4y":"5828760\n"},{"nr":"9171541","name":"Boschpoler Platz","place":"Berlin","lon":"13.555666","lat":"52.527574","gk4x":"4605679","gk4y":"5822744\n"},{"nr":"9171517","name":"Boschpoler Str.","place":"Berlin","lon":"13.548811","lat":"52.527502","gk4x":"4605214","gk4y":"5822726\n"},{"nr":"9077150","name":"Boschweg","place":"Berlin","lon":"13.464249","lat":"52.463906","gk4x":"4599619","gk4y":"5815530\n"},{"nr":"9132511","name":"Botanische Anlage","place":"Berlin","lon":"13.400912","lat":"52.604875","gk4x":"4595010","gk4y":"5831130\n"},{"nr":"9066105","name":"Botanischer Garten","place":"Berlin","lon":"13.310252","lat":"52.451666","gk4x":"4589178","gk4y":"5813967\n"},{"nr":"9027359","name":"Bötzow-Bahn","place":"Berlin","lon":"13.172099","lat":"52.560818","gk4x":"4579589","gk4y":"5825951\n"},{"nr":"9110520","name":"Bötzowstr.","place":"Berlin","lon":"13.430600","lat":"52.528838","gk4x":"4597189","gk4y":"5822709\n"},{"nr":"9190506","name":"Bouchéstr.","place":"Berlin","lon":"13.448495","lat":"52.490487","gk4x":"4598489","gk4y":"5818466\n"},{"nr":"9170535","name":"Boxberger Str.","place":"Berlin","lon":"13.538359","lat":"52.554340","gk4x":"4604441","gk4y":"5825697\n"},{"nr":"9120530","name":"Boxhagener Platz","place":"Berlin","lon":"13.460970","lat":"52.511041","gk4x":"4599290","gk4y":"5820770\n"},{"nr":"9120027","name":"Boxhagener Str.","place":"Berlin","lon":"13.454016","lat":"52.514146","gk4x":"4598811","gk4y":"5821106\n"},{"nr":"9120013","name":"Boxhagener Str./Holteistr.","place":"Berlin","lon":"13.466295","lat":"52.508611","gk4x":"4599657","gk4y":"5820507\n"},{"nr":"9044151","name":"Brabanter Platz","place":"Berlin","lon":"13.315889","lat":"52.481828","gk4x":"4589500","gk4y":"5817330\n"},{"nr":"9016158","name":"Brachvogelstr.","place":"Berlin","lon":"13.396484","lat":"52.495822","gk4x":"4594945","gk4y":"5818990\n"},{"nr":"9210137","name":"Brahmsallee","place":"Falkensee","lon":"13.124720","lat":"52.576430","gk4x":"4576349","gk4y":"5827637\n"},{"nr":"9066181","name":"Braillestr.","place":"Berlin","lon":"13.315777","lat":"52.453429","gk4x":"4589550","gk4y":"5814170\n"},{"nr":"9230205","name":"Brandenburger Str.","place":"Potsdam","lon":"13.057747","lat":"52.401028","gk4x":"4572095","gk4y":"5808051\n"},{"nr":"9350253","name":"Brandenburg-Klinik","place":"Bernau","lon":"13.498566","lat":"52.730695","gk4x":"4601334","gk4y":"5845263\n"},{"nr":"9180512","name":"Brandenburgplatz","place":"Berlin","lon":"13.591116","lat":"52.455274","gk4x":"4608262","gk4y":"5814752\n"},{"nr":"9037122","name":"Brandwerder","place":"Berlin","lon":"13.156965","lat":"52.535480","gk4x":"4578608","gk4y":"5823115\n"},{"nr":"9175516","name":"Branitzer Str.","place":"Berlin","lon":"13.621791","lat":"52.532501","gk4x":"4610154","gk4y":"5823391\n"},{"nr":"9195513","name":"Braunellensteig","place":"Berlin","lon":"13.526680","lat":"52.418754","gk4x":"4603968","gk4y":"5810594\n"},{"nr":"9175540","name":"Bredereckstr.","place":"Berlin","lon":"13.595728","lat":"52.512795","gk4x":"4608434","gk4y":"5821159\n"},{"nr":"9130514","name":"Brehmestr.","place":"Berlin","lon":"13.402840","lat":"52.562666","gk4x":"4595232","gk4y":"5826436\n"},{"nr":"9063291","name":"Breite Str.","place":"Berlin","lon":"13.329037","lat":"52.454090","gk4x":"4590450","gk4y":"5814260\n"},{"nr":"9029303","name":"Breite Str./Markt","place":"Berlin","lon":"13.204761","lat":"52.536036","gk4x":"4581850","gk4y":"5823230\n"},{"nr":"9038201","name":"Breitehornweg","place":"Berlin","lon":"13.169473","lat":"52.470407","gk4x":"4579574","gk4y":"5815888\n"},{"nr":"9085262","name":"Breitkopfstr.","place":"Berlin","lon":"13.364157","lat":"52.571692","gk4x":"4592590","gk4y":"5827390\n"},{"nr":"9023252","name":"Breitscheidplatz","place":"Berlin","lon":"13.338824","lat":"52.505117","gk4x":"4591010","gk4y":"5819950\n"},{"nr":"9350009","name":"Breitscheidstraße","place":"Bernau","lon":"13.585489","lat":"52.675380","gk4x":"4607341","gk4y":"5839234\n"},{"nr":"9066354","name":"Bremer Str.","place":"Berlin","lon":"13.306857","lat":"52.428912","gk4x":"4588993","gk4y":"5811431\n"},{"nr":"9220081","name":"Bremer Str.","place":"Teltow","lon":"13.246523","lat":"52.387944","gk4x":"4584968","gk4y":"5806800\n"},{"nr":"9230052","name":"Brentanoweg","place":"Potsdam","lon":"13.046428","lat":"52.406988","gk4x":"4571315","gk4y":"5808703\n"},{"nr":"9011207","name":"Brienzer Str.","place":"Berlin","lon":"13.359578","lat":"52.561949","gk4x":"4592300","gk4y":"5826300\n"},{"nr":"9175525","name":"Briesener Weg","place":"Berlin","lon":"13.606274","lat":"52.513956","gk4x":"4609147","gk4y":"5821304\n"},{"nr":"9011152","name":"Bristolstr.","place":"Berlin","lon":"13.351614","lat":"52.558562","gk4x":"4591767","gk4y":"5825913\n"},{"nr":"9077202","name":"Britzer Allee","place":"Berlin","lon":"13.474851","lat":"52.460171","gk4x":"4600348","gk4y":"5815129\n"},{"nr":"9080103","name":"Britzer Damm/Gradestr.","place":"Berlin","lon":"13.438779","lat":"52.452652","gk4x":"4597913","gk4y":"5814243\n"},{"nr":"9080406","name":"Britzer Damm/Mohriner Allee","place":"Berlin","lon":"13.433573","lat":"52.444106","gk4x":"4597578","gk4y":"5813285\n"},{"nr":"9080102","name":"Britzer Damm/Tempelhofer Weg","place":"Berlin","lon":"13.436421","lat":"52.448924","gk4x":"4597761","gk4y":"5813825\n"},{"nr":"9080652","name":"Britzer Garten","place":"Berlin","lon":"13.435036","lat":"52.428018","gk4x":"4597713","gk4y":"5811497\n"},{"nr":"9192504","name":"Britzer Str.","place":"Berlin","lon":"13.519296","lat":"52.454089","gk4x":"4603383","gk4y":"5814515\n"},{"nr":"9026102","name":"Brixplatz","place":"Berlin","lon":"13.256218","lat":"52.519693","gk4x":"4585373","gk4y":"5821471\n"},{"nr":"9076151","name":"Brockenstr.","place":"Berlin","lon":"13.451352","lat":"52.483811","gk4x":"4598698","gk4y":"5817727\n"},{"nr":"9170524","name":"Brodowiner Ring","place":"Berlin","lon":"13.578357","lat":"52.547639","gk4x":"4607170","gk4y":"5825010\n"},{"nr":"9182514","name":"Brösener Str.","place":"Berlin","lon":"13.635744","lat":"52.458638","gk4x":"4611287","gk4y":"5815194\n"},{"nr":"9067301","name":"Brotteroder Str.","place":"Berlin","lon":"13.350640","lat":"52.420223","gk4x":"4591989","gk4y":"5810519\n"},{"nr":"9176536","name":"Bruchsaler Str.","place":"Berlin","lon":"13.606031","lat":"52.488740","gk4x":"4609193","gk4y":"5818498\n"},{"nr":"9095155","name":"Bruchstückgraben","place":"Berlin","lon":"13.348710","lat":"52.606650","gk4x":"4591470","gk4y":"5831260\n"},{"nr":"9067258","name":"Bruchwitzstr.","place":"Berlin","lon":"13.348343","lat":"52.437892","gk4x":"4591796","gk4y":"5812482\n"},{"nr":"9192506","name":"Brückenstr.","place":"Berlin","lon":"13.512065","lat":"52.458577","gk4x":"4602881","gk4y":"5815004\n"},{"nr":"9060151","name":"Brüggemannstr.","place":"Berlin","lon":"13.348080","lat":"52.463482","gk4x":"4591725","gk4y":"5815329\n"},{"nr":"9008106","name":"Brunnenplatz","place":"Berlin","lon":"13.377996","lat":"52.550142","gk4x":"4593574","gk4y":"5825010\n"},{"nr":"9100507","name":"Brunnenstr./Anklamer Str.","place":"Berlin","lon":"13.398084","lat":"52.534619","gk4x":"4594970","gk4y":"5823309\n"},{"nr":"9100041","name":"Brunnenstr./Invalidenstr.","place":"Berlin","lon":"13.399197","lat":"52.532548","gk4x":"4595050","gk4y":"5823080\n"},{"nr":"9007158","name":"Brunnenstr./Ramlerstr.","place":"Berlin","lon":"13.389339","lat":"52.547044","gk4x":"4594350","gk4y":"5824680\n"},{"nr":"9192502","name":"Bruno-Bürgel-Weg","place":"Berlin","lon":"13.532042","lat":"52.452118","gk4x":"4604254","gk4y":"5814314\n"},{"nr":"9182507","name":"Bruno-Wille-Str.","place":"Berlin","lon":"13.632311","lat":"52.446974","gk4x":"4611083","gk4y":"5813891\n"},{"nr":"9037103","name":"Brunsbütteler Damm/Nennhauser Damm","place":"Berlin","lon":"13.143996","lat":"52.532631","gk4x":"4577733","gk4y":"5822784\n"},{"nr":"9031101","name":"Brunsbütteler Damm/Ruhlebener Str.","place":"Berlin","lon":"13.198193","lat":"52.532957","gk4x":"4581410","gk4y":"5822880\n"},{"nr":"9037114","name":"Brunsbütteler Damm/Stadtgrenze","place":"Berlin","lon":"13.124495","lat":"52.535371","gk4x":"4576405","gk4y":"5823068\n"},{"nr":"9085150","name":"Brusebergstr.","place":"Berlin","lon":"13.346804","lat":"52.568566","gk4x":"4591420","gk4y":"5827020\n"},{"nr":"9135599","name":"Buch/Werk","place":"Berlin","lon":"13.508304","lat":"52.637078","gk4x":"4602210","gk4y":"5834860\n"},{"nr":"9143513","name":"Bucher Chaussee/Achillesstr.","place":"Berlin","lon":"13.487715","lat":"52.618070","gk4x":"4600860","gk4y":"5832716\n"},{"nr":"9082296","name":"Buchfinkweg","place":"Berlin","lon":"13.464257","lat":"52.433124","gk4x":"4599689","gk4y":"5812105\n"},{"nr":"9131523","name":"Buchholzer Str. 55-61","place":"Berlin","lon":"13.416089","lat":"52.590315","gk4x":"4596070","gk4y":"5829530\n"},{"nr":"9131511","name":"Buchholzer Str./Wackenbergstr.","place":"Berlin","lon":"13.408052","lat":"52.583580","gk4x":"4595540","gk4y":"5828770\n"},{"nr":"9019105","name":"Buchholzweg","place":"Berlin","lon":"13.317793","lat":"52.546973","gk4x":"4589497","gk4y":"5824581\n"},{"nr":"9132505","name":"Buchhorster Str.","place":"Berlin","lon":"13.371554","lat":"52.591289","gk4x":"4593050","gk4y":"5829580\n"},{"nr":"9310558","name":"Buchhorster Str.","place":"Erkner","lon":"13.753635","lat":"52.414804","gk4x":"4619418","gk4y":"5810505\n"},{"nr":"9193515","name":"Büchnerweg","place":"Berlin","lon":"13.552614","lat":"52.434342","gk4x":"4605695","gk4y":"5812366\n"},{"nr":"9083268","name":"Buchsbaumweg","place":"Berlin","lon":"13.505992","lat":"52.422030","gk4x":"4602553","gk4y":"5810929\n"},{"nr":"9080407","name":"Buckower Damm/Gutschmidtstr.","place":"Berlin","lon":"13.434999","lat":"52.440466","gk4x":"4597683","gk4y":"5812882\n"},{"nr":"9081203","name":"Buckower Damm/Ringslebenstr.","place":"Berlin","lon":"13.439281","lat":"52.417523","gk4x":"4598025","gk4y":"5810335\n"},{"nr":"9081204","name":"Buckower Friedhof","place":"Berlin","lon":"13.431852","lat":"52.421891","gk4x":"4597510","gk4y":"5810811\n"},{"nr":"9171513","name":"Buckower Ring","place":"Berlin","lon":"13.565319","lat":"52.525119","gk4x":"4606340","gk4y":"5822485\n"},{"nr":"9005101","name":"Budapester Str.","place":"Berlin","lon":"13.345672","lat":"52.506567","gk4x":"4591472","gk4y":"5820120\n"},{"nr":"9230214","name":"BUGA-Park","place":"Potsdam","lon":"13.050445","lat":"52.418968","gk4x":"4571569","gk4y":"5810040\n"},{"nr":"9081151","name":"Bühler Weg","place":"Berlin","lon":"13.412904","lat":"52.417302","gk4x":"4596231","gk4y":"5810275\n"},{"nr":"9220331","name":"Bullenwinkel","place":"Potsdam","lon":"13.079361","lat":"52.462996","gk4x":"4573463","gk4y":"5814968\n"},{"nr":"9066302","name":"Bundesarchiv","place":"Berlin","lon":"13.299874","lat":"52.432422","gk4x":"4588511","gk4y":"5811813\n"},{"nr":"9003260","name":"Bundeskanzleramt","place":"Berlin","lon":"13.371197","lat":"52.520743","gk4x":"4593175","gk4y":"5821730\n"},{"nr":"9100035","name":"Bundeswehrkrankenhaus","place":"Berlin","lon":"13.370084","lat":"52.534686","gk4x":"4593070","gk4y":"5823280\n"},{"nr":"9027292","name":"Bürgerablage","place":"Berlin","lon":"13.207194","lat":"52.584380","gk4x":"4581925","gk4y":"5828612\n"},{"nr":"9170529","name":"Bürgerpark Marzahn","place":"Berlin","lon":"13.561578","lat":"52.550495","gk4x":"4606025","gk4y":"5825303\n"},{"nr":"9131004","name":"Bürgerpark Pankow","place":"Berlin","lon":"13.398141","lat":"52.571197","gk4x":"4594895","gk4y":"5827379\n"},{"nr":"9220077","name":"Bürgertreff","place":"Teltow","lon":"13.271395","lat":"52.399299","gk4x":"4586639","gk4y":"5808093\n"},{"nr":"9230071","name":"Burgstr./Klinikum","place":"Potsdam","lon":"13.064956","lat":"52.398348","gk4x":"4572590","gk4y":"5807760\n"},{"nr":"9034153","name":"Burscheider Weg","place":"Berlin","lon":"13.238320","lat":"52.544937","gk4x":"4584110","gk4y":"5824259\n"},{"nr":"9350255","name":"Busbahnhof","place":"Bernau","lon":"13.595120","lat":"52.676365","gk4x":"4607990","gk4y":"5839358\n"},{"nr":"9140519","name":"Buschallee","place":"Berlin","lon":"13.469345","lat":"52.553672","gk4x":"4599762","gk4y":"5825525\n"},{"nr":"9140007","name":"Buschallee/Hansastr.","place":"Berlin","lon":"13.480697","lat":"52.553171","gk4x":"4600533","gk4y":"5825485\n"},{"nr":"9171524","name":"Buschiner Str.","place":"Berlin","lon":"13.556493","lat":"52.522611","gk4x":"4605747","gk4y":"5822193\n"},{"nr":"9120511","name":"Büschingstr.","place":"Berlin","lon":"13.427217","lat":"52.523127","gk4x":"4596972","gk4y":"5822069\n"},{"nr":"9080405","name":"Buschkrug","place":"Berlin","lon":"13.452162","lat":"52.452542","gk4x":"4598823","gk4y":"5814249\n"},{"nr":"9080403","name":"Buschkrugallee/Parchimer Allee","place":"Berlin","lon":"13.454870","lat":"52.445436","gk4x":"4599023","gk4y":"5813462\n"},{"nr":"9037209","name":"Buschower Weg","place":"Berlin","lon":"13.132299","lat":"52.526507","gk4x":"4576950","gk4y":"5822090\n"},{"nr":"9050381","name":"Busseallee","place":"Berlin","lon":"13.250063","lat":"52.435728","gk4x":"4585117","gk4y":"5812121\n"},{"nr":"9176535","name":"Bütower Str.","place":"Berlin","lon":"13.603938","lat":"52.485821","gk4x":"4609058","gk4y":"5818170\n"},{"nr":"9230216","name":"C.-Schumann-Str./Trebb. Str.","place":"Potsdam","lon":"13.133122","lat":"52.356875","gk4x":"4577302","gk4y":"5803216\n"},{"nr":"9310502","name":"C.-Zetkin-Str.","place":"Schöneiche (bei Berlin)","lon":"13.700090","lat":"52.461451","gk4x":"4615653","gk4y":"5815608\n"},{"nr":"9096309","name":"Calauer Str.","place":"Berlin","lon":"13.349500","lat":"52.604016","gk4x":"4591529","gk4y":"5830968\n"},{"nr":"9110031","name":"Caligariplatz","place":"Berlin","lon":"13.431267","lat":"52.552053","gk4x":"4597183","gk4y":"5825293\n"},{"nr":"9210328","name":"Calvinstr.","place":"Falkensee","lon":"13.143666","lat":"52.556243","gk4x":"4577669","gk4y":"5825411\n"},{"nr":"9049157","name":"Camphausenstr.","place":"Berlin","lon":"13.250751","lat":"52.427839","gk4x":"4585179","gk4y":"5811244\n"},{"nr":"9135018","name":"Campus Buch","place":"Berlin","lon":"13.502164","lat":"52.625185","gk4x":"4601822","gk4y":"5833528\n"},{"nr":"9230206","name":"Campus Fachhochschule","place":"Potsdam","lon":"13.050682","lat":"52.414095","gk4x":"4571593","gk4y":"5809498\n"},{"nr":"9230133","name":"Campus Universität/Lindenallee","place":"Potsdam","lon":"13.010819","lat":"52.401744","gk4x":"4568900","gk4y":"5808085\n"},{"nr":"9063203","name":"Carmerplatz","place":"Berlin","lon":"13.320320","lat":"52.452354","gk4x":"4589861","gk4y":"5814056\n"},{"nr":"9066201","name":"Carstennstr./Ringstr.","place":"Berlin","lon":"13.287075","lat":"52.432715","gk4x":"4587640","gk4y":"5811830\n"},{"nr":"9027207","name":"Cautiusstr.","place":"Berlin","lon":"13.196875","lat":"52.562511","gk4x":"4581266","gk4y":"5826167\n"},{"nr":"9060107","name":"Ceciliengärten","place":"Berlin","lon":"13.343076","lat":"52.475024","gk4x":"4591361","gk4y":"5816607\n"},{"nr":"9074251","name":"Cecilienstr.","place":"Berlin","lon":"13.388720","lat":"52.388649","gk4x":"4594647","gk4y":"5807055\n"},{"nr":"9171010","name":"Cecilienstr./Blumberger Damm","place":"Berlin","lon":"13.565770","lat":"52.529077","gk4x":"4606361","gk4y":"5822926\n"},{"nr":"9175538","name":"Cecilienstr./Hellersdorfer Str.","place":"Berlin","lon":"13.587793","lat":"52.524361","gk4x":"4607867","gk4y":"5822434\n"},{"nr":"9171522","name":"Cecilienstr./Oberfeldstr.","place":"Berlin","lon":"13.558067","lat":"52.529637","gk4x":"4605837","gk4y":"5822977\n"},{"nr":"9171520","name":"Cecilienstr./Wuhle","place":"Berlin","lon":"13.577000","lat":"52.526222","gk4x":"4607130","gk4y":"5822625\n"},{"nr":"9064205","name":"Celsiusstr. Nord","place":"Berlin","lon":"13.315932","lat":"52.416211","gk4x":"4589636","gk4y":"5810029\n"},{"nr":"9064273","name":"Celsiusstr. Süd","place":"Berlin","lon":"13.314130","lat":"52.410974","gk4x":"4589524","gk4y":"5809444\n"},{"nr":"9066410","name":"Charité - Campus Benjamin Franklin","place":"Berlin","lon":"13.316084","lat":"52.441023","gk4x":"4589596","gk4y":"5812790\n"},{"nr":"9100542","name":"Charité - Campus Mitte","place":"Berlin","lon":"13.379089","lat":"52.525756","gk4x":"4593700","gk4y":"5822298\n"},{"nr":"9024103","name":"Charlottenburg Bhf","place":"Berlin","lon":"13.302565","lat":"52.504174","gk4x":"4588550","gk4y":"5819800\n"},{"nr":"9230006","name":"Charlottenhof Bhf","place":"Potsdam","lon":"13.036298","lat":"52.392986","gk4x":"4570648","gk4y":"5807135\n"},{"nr":"9012154","name":"Charlottenstr.","place":"Berlin","lon":"13.393536","lat":"52.506885","gk4x":"4594721","gk4y":"5820217\n"},{"nr":"9131517","name":"Charlottenstr./Beuthstr.","place":"Berlin","lon":"13.413040","lat":"52.588194","gk4x":"4595868","gk4y":"5829290\n"},{"nr":"9053259","name":"Charlottenstr./Chausseestr.","place":"Berlin","lon":"13.145619","lat":"52.415478","gk4x":"4578050","gk4y":"5809750\n"},{"nr":"9180504","name":"Chausseehaus","place":"Berlin","lon":"13.614938","lat":"52.430047","gk4x":"4609944","gk4y":"5811981\n"},{"nr":"9175008","name":"Chemnitzer Str./Jägerstr.","place":"Berlin","lon":"13.574222","lat":"52.486058","gk4x":"4607039","gk4y":"5818152\n"},{"nr":"9068355","name":"Chlodwigstr.","place":"Berlin","lon":"13.371835","lat":"52.452810","gk4x":"4593362","gk4y":"5814172\n"},{"nr":"9230043","name":"Chopinstr.","place":"Potsdam","lon":"13.134825","lat":"52.380909","gk4x":"4577376","gk4y":"5805892\n"},{"nr":"9143510","name":"Chronisteneck","place":"Berlin","lon":"13.485829","lat":"52.620780","gk4x":"4600726","gk4y":"5833015\n"},{"nr":"9003257","name":"Claire-Waldoff-Promenade","place":"Berlin","lon":"13.361350","lat":"52.523913","gk4x":"4592500","gk4y":"5822070\n"},{"nr":"9052304","name":"Clauertstr.","place":"Berlin","lon":"13.229656","lat":"52.427422","gk4x":"4583745","gk4y":"5811173\n"},{"nr":"9051310","name":"Clayallee 229","place":"Berlin","lon":"13.269353","lat":"52.448419","gk4x":"4586404","gk4y":"5813556\n"},{"nr":"9069251","name":"Colditzstr.","place":"Berlin","lon":"13.392795","lat":"52.457831","gk4x":"4594776","gk4y":"5814758\n"},{"nr":"9069207","name":"Colditzstr./Ullsteinstr.","place":"Berlin","lon":"13.396500","lat":"52.453105","gk4x":"4595038","gk4y":"5814237\n"},{"nr":"9069101","name":"Columbiadamm/Friesenstr.","place":"Berlin","lon":"13.394479","lat":"52.484118","gk4x":"4594834","gk4y":"5817685\n"},{"nr":"9017181","name":"Columbiadamm/Platz der Luftbrücke","place":"Berlin","lon":"13.390012","lat":"52.484359","gk4x":"4594530","gk4y":"5817706\n"},{"nr":"9110027","name":"Conrad-Blenkle-Str.","place":"Berlin","lon":"13.444669","lat":"52.534105","gk4x":"4598132","gk4y":"5823314\n"},{"nr":"9053260","name":"Conradstr.","place":"Berlin","lon":"13.161618","lat":"52.420264","gk4x":"4579130","gk4y":"5810300\n"},{"nr":"9096153","name":"Conradstr./Ernststr.","place":"Berlin","lon":"13.300025","lat":"52.583217","gk4x":"4588219","gk4y":"5828592\n"},{"nr":"9120521","name":"Corinthstr.","place":"Berlin","lon":"13.465757","lat":"52.499082","gk4x":"4599642","gk4y":"5819446\n"},{"nr":"9005102","name":"Corneliusbrücke","place":"Berlin","lon":"13.348665","lat":"52.507620","gk4x":"4591673","gk4y":"5820241\n"},{"nr":"9063154","name":"Cranachstr.","place":"Berlin","lon":"13.343246","lat":"52.462728","gk4x":"4591398","gk4y":"5815239\n"},{"nr":"9161508","name":"Criegernweg","place":"Berlin","lon":"13.521759","lat":"52.500730","gk4x":"4603441","gk4y":"5819708\n"},{"nr":"9072191","name":"Culemeyerstr.","place":"Berlin","lon":"13.392837","lat":"52.416741","gk4x":"4594867","gk4y":"5810186\n"},{"nr":"9046152","name":"Cunostr.","place":"Berlin","lon":"13.295973","lat":"52.485373","gk4x":"4588140","gk4y":"5817700\n"},{"nr":"9096191","name":"Cyclopstr.","place":"Berlin","lon":"13.324376","lat":"52.602521","gk4x":"4589830","gk4y":"5830770\n"},{"nr":"9057105","name":"Czeminskistr.","place":"Berlin","lon":"13.362077","lat":"52.485529","gk4x":"4592630","gk4y":"5817800\n"},{"nr":"9080603","name":"Dachdeckerweg","place":"Berlin","lon":"13.435562","lat":"52.431993","gk4x":"4597740","gk4y":"5811940\n"},{"nr":"9049208","name":"Dahlemer Weg","place":"Berlin","lon":"13.278633","lat":"52.432142","gk4x":"4587067","gk4y":"5811756\n"},{"nr":"9176011","name":"Dahlwitzer Str./Greifswalder Str.","place":"Berlin","lon":"13.644143","lat":"52.527213","gk4x":"4611684","gk4y":"5822837\n"},{"nr":"9001133","name":"Dahmestr.","place":"Berlin","lon":"13.571149","lat":"52.401472","gk4x":"4607035","gk4y":"5808736\n"},{"nr":"9018153","name":"Dahrendorfzeile","place":"Berlin","lon":"13.289038","lat":"52.535148","gk4x":"4587570","gk4y":"5823230\n"},{"nr":"9072104","name":"Daimlerstr.","place":"Berlin","lon":"13.384988","lat":"52.421902","gk4x":"4594322","gk4y":"5810750\n"},{"nr":"9029152","name":"Dallgower Str.","place":"Berlin","lon":"13.186824","lat":"52.537655","gk4x":"4580630","gk4y":"5823390\n"},{"nr":"9183510","name":"Dämeritzstr.","place":"Berlin","lon":"13.726832","lat":"52.425903","gk4x":"4617565","gk4y":"5811696\n"},{"nr":"9191515","name":"Dammweg/Bergaustr.","place":"Berlin","lon":"13.475898","lat":"52.476083","gk4x":"4600383","gk4y":"5816901\n"},{"nr":"9077102","name":"Dammweg/Sonnenallee","place":"Berlin","lon":"13.464917","lat":"52.470279","gk4x":"4599650","gk4y":"5816240\n"},{"nr":"9210158","name":"Damsbrück","place":"Falkensee","lon":"13.098968","lat":"52.591356","gk4x":"4574578","gk4y":"5829271\n"},{"nr":"9195503","name":"Dankmarsteig","place":"Berlin","lon":"13.528711","lat":"52.412464","gk4x":"4604121","gk4y":"5809897\n"},{"nr":"9070202","name":"Dardanellenweg","place":"Berlin","lon":"13.410770","lat":"52.444847","gk4x":"4596026","gk4y":"5813337\n"},{"nr":"9066204","name":"Darser Str.","place":"Berlin","lon":"13.283499","lat":"52.416918","gk4x":"4587428","gk4y":"5810068\n"},{"nr":"9140020","name":"Darßer Str./Piesporter Str.","place":"Berlin","lon":"13.478310","lat":"52.566816","gk4x":"4600340","gk4y":"5827000\n"},{"nr":"9150022","name":"Darßer Str./Ribnitzer Str.","place":"Berlin","lon":"13.493440","lat":"52.565009","gk4x":"4601370","gk4y":"5826820\n"},{"nr":"9144501","name":"Darßer Str./Roelckestr.","place":"Berlin","lon":"13.464099","lat":"52.566598","gk4x":"4599377","gk4y":"5826956\n"},{"nr":"9034160","name":"Daumstr./Rhenaniastr.","place":"Berlin","lon":"13.225756","lat":"52.554810","gk4x":"4583239","gk4y":"5825343\n"},{"nr":"9150015","name":"Degnerstr.","place":"Berlin","lon":"13.495458","lat":"52.546289","gk4x":"4601550","gk4y":"5824740\n"},{"nr":"9150010","name":"Degnerstr./Suermondtstr.","place":"Berlin","lon":"13.498524","lat":"52.549756","gk4x":"4601750","gk4y":"5825130\n"},{"nr":"9045152","name":"Deidesheimer Str.","place":"Berlin","lon":"13.320374","lat":"52.474318","gk4x":"4589820","gk4y":"5816500\n"},{"nr":"9048161","name":"Delbrückstr.","place":"Berlin","lon":"13.282792","lat":"52.484178","gk4x":"4587247","gk4y":"5817551\n"},{"nr":"9081252","name":"Delmer Steig","place":"Berlin","lon":"13.422325","lat":"52.419580","gk4x":"4596867","gk4y":"5810541\n"},{"nr":"9007154","name":"Demminer Str.","place":"Berlin","lon":"13.399429","lat":"52.542611","gk4x":"4595044","gk4y":"5824200\n"},{"nr":"9057107","name":"Dennewitzplatz","place":"Berlin","lon":"13.366227","lat":"52.495906","gk4x":"4592890","gk4y":"5818960\n"},{"nr":"9153502","name":"Dessauer Str.","place":"Berlin","lon":"13.549900","lat":"52.568857","gk4x":"4605189","gk4y":"5827329\n"},{"nr":"9044104","name":"Detmolder Str./Blissestr.","place":"Berlin","lon":"13.320326","lat":"52.479118","gk4x":"4589807","gk4y":"5817034\n"},{"nr":"9100509","name":"Deutsches Theater","place":"Berlin","lon":"13.383265","lat":"52.523128","gk4x":"4593989","gk4y":"5822011\n"},{"nr":"9175502","name":"Deutschhofer Allee","place":"Berlin","lon":"13.569001","lat":"52.479585","gk4x":"4606700","gk4y":"5817424\n"},{"nr":"9091251","name":"Diakoniezentrum","place":"Berlin","lon":"13.251945","lat":"52.611325","gk4x":"4584906","gk4y":"5831662\n"},{"nr":"9094153","name":"Dianastr.","place":"Berlin","lon":"13.310303","lat":"52.603801","gk4x":"4588874","gk4y":"5830895\n"},{"nr":"9070154","name":"Didostr.","place":"Berlin","lon":"13.398545","lat":"52.447087","gk4x":"4595190","gk4y":"5813570\n"},{"nr":"9350256","name":"Diebesweg","place":"Bernau","lon":"13.567524","lat":"52.674549","gk4x":"4606128","gk4y":"5839115\n"},{"nr":"9096203","name":"Dietrichinger Weg","place":"Berlin","lon":"13.330254","lat":"52.601646","gk4x":"4590230","gk4y":"5830680\n"},{"nr":"9131521","name":"Dietzgenstr./Mittelstr.","place":"Berlin","lon":"13.402246","lat":"52.591199","gk4x":"4595130","gk4y":"5829610\n"},{"nr":"9051281","name":"Dillenburger Str.","place":"Berlin","lon":"13.304855","lat":"52.469611","gk4x":"4588775","gk4y":"5815957\n"},{"nr":"9067257","name":"Dillgesstr.","place":"Berlin","lon":"13.342247","lat":"52.434258","gk4x":"4591389","gk4y":"5812070\n"},{"nr":"9170520","name":"Dingelstädter Str.","place":"Berlin","lon":"13.524788","lat":"52.536739","gk4x":"4603562","gk4y":"5823719\n"},{"nr":"9070181","name":"Dirschelweg","place":"Berlin","lon":"13.400153","lat":"52.444929","gk4x":"4595304","gk4y":"5813332\n"},{"nr":"9001203","name":"Döberitzer Str.","place":"Berlin","lon":"13.368760","lat":"52.530028","gk4x":"4592990","gk4y":"5822760\n"},{"nr":"9037109","name":"Döberitzer Weg","place":"Berlin","lon":"13.132943","lat":"52.528640","gk4x":"4576990","gk4y":"5822328\n"},{"nr":"9071151","name":"Döhlauer Pfad","place":"Berlin","lon":"13.362567","lat":"52.436578","gk4x":"4592766","gk4y":"5812354\n"},{"nr":"9171535","name":"Dohlengrund","place":"Berlin","lon":"13.563348","lat":"52.498246","gk4x":"4606271","gk4y":"5819492\n"},{"nr":"9210102","name":"Dohlensteg","place":"Falkensee","lon":"13.060139","lat":"52.563078","gk4x":"4571993","gk4y":"5826085\n"},{"nr":"9130513","name":"Dolomitenstr.","place":"Berlin","lon":"13.405626","lat":"52.561231","gk4x":"4595424","gk4y":"5826280\n"},{"nr":"9051205","name":"Domäne Dahlem","place":"Berlin","lon":"13.287081","lat":"52.458149","gk4x":"4587590","gk4y":"5814660\n"},{"nr":"9054107","name":"Dominicusstr./Hauptstr.","place":"Berlin","lon":"13.348375","lat":"52.481794","gk4x":"4591707","gk4y":"5817367\n"},{"nr":"9092256","name":"Dominikus-Krankenhaus","place":"Berlin","lon":"13.294816","lat":"52.626214","gk4x":"4587780","gk4y":"5833370\n"},{"nr":"9058152","name":"Domnauer Str.","place":"Berlin","lon":"13.364442","lat":"52.455861","gk4x":"4592853","gk4y":"5814502\n"},{"nr":"9176511","name":"Donizettistr.","place":"Berlin","lon":"13.624055","lat":"52.511961","gk4x":"4610359","gk4y":"5821109\n"},{"nr":"9176502","name":"Donizettistr./Lemkestr.","place":"Berlin","lon":"13.619467","lat":"52.512203","gk4x":"4610047","gk4y":"5821129\n"},{"nr":"9176503","name":"Donizettistr./Straußstr.","place":"Berlin","lon":"13.627899","lat":"52.511548","gk4x":"4610621","gk4y":"5821069\n"},{"nr":"9092203","name":"Donnersmarckplatz","place":"Berlin","lon":"13.280427","lat":"52.630136","gk4x":"4586798","gk4y":"5833789\n"},{"nr":"9210634","name":"Dorf","place":"Dallgow-Döberitz","lon":"13.086376","lat":"52.535116","gk4x":"4573819","gk4y":"5823000\n"},{"nr":"9091161","name":"Dorfaue","place":"Berlin","lon":"13.210204","lat":"52.606313","gk4x":"4582088","gk4y":"5831056\n"},{"nr":"9310021","name":"Dorfaue","place":"Schöneiche (bei Berlin)","lon":"13.701448","lat":"52.478706","gk4x":"4615700","gk4y":"5817530\n"},{"nr":"9350144","name":"Dorfstr.","place":"Ahrensfelde","lon":"13.579249","lat":"52.576144","gk4x":"4607161","gk4y":"5828183\n"},{"nr":"9310513","name":"Dorfstr.","place":"Schöneiche (bei Berlin)","lon":"13.695202","lat":"52.478984","gk4x":"4615275","gk4y":"5817551\n"},{"nr":"9152005","name":"Dorfstr./Lindenberger Str.","place":"Berlin","lon":"13.518146","lat":"52.574886","gk4x":"4603022","gk4y":"5827954\n"},{"nr":"9100548","name":"Dorotheenstr.","place":"Berlin","lon":"13.389329","lat":"52.518734","gk4x":"4594410","gk4y":"5821530\n"},{"nr":"9230064","name":"Dortustr.","place":"Potsdam","lon":"13.052824","lat":"52.399130","gk4x":"4571763","gk4y":"5807835\n"},{"nr":"9022203","name":"Dovebrücke","place":"Berlin","lon":"13.320268","lat":"52.518438","gk4x":"4589723","gk4y":"5821409\n"},{"nr":"9230135","name":"Drachenhaus","place":"Potsdam","lon":"13.020625","lat":"52.405138","gk4x":"4569562","gk4y":"5808472\n"},{"nr":"9182504","name":"Drachholzstr.","place":"Berlin","lon":"13.625096","lat":"52.453940","gk4x":"4610575","gk4y":"5814655\n"},{"nr":"9066150","name":"Drakestr./Gardeschützenweg","place":"Berlin","lon":"13.297371","lat":"52.442345","gk4x":"4588321","gk4y":"5812914\n"},{"nr":"9066407","name":"Drakestr./Ringstr.","place":"Berlin","lon":"13.299794","lat":"52.440215","gk4x":"4588490","gk4y":"5812680\n"},{"nr":"9180518","name":"Dregerhoffstr.","place":"Berlin","lon":"13.585249","lat":"52.427501","gk4x":"4607931","gk4y":"5811653\n"},{"nr":"9220042","name":"Dreilinden","place":"Kleinmachnow","lon":"13.175677","lat":"52.405027","gk4x":"4580114","gk4y":"5808620\n"},{"nr":"9093153","name":"Drewitzer Str.","place":"Berlin","lon":"13.301630","lat":"52.616972","gk4x":"4588260","gk4y":"5832350\n"},{"nr":"9230110","name":"Drewitzer Str./Am Buchhorst","place":"Potsdam","lon":"13.112906","lat":"52.360779","gk4x":"4575918","gk4y":"5803629\n"},{"nr":"9230148","name":"Drewitzer Str./Erich-Weinert-Str.","place":"Potsdam","lon":"13.101017","lat":"52.366751","gk4x":"4575098","gk4y":"5804281\n"},{"nr":"9230107","name":"Drewitz-Ort","place":"Potsdam","lon":"13.128061","lat":"52.363898","gk4x":"4576945","gk4y":"5803992\n"},{"nr":"9020153","name":"DRK-Kliniken Westend","place":"Berlin","lon":"13.276432","lat":"52.518712","gk4x":"4586747","gk4y":"5821386\n"},{"nr":"9009206","name":"Drontheimer Str.","place":"Berlin","lon":"13.377547","lat":"52.556529","gk4x":"4593530","gk4y":"5825720\n"},{"nr":"9081254","name":"Dröpkeweg","place":"Berlin","lon":"13.448858","lat":"52.419581","gk4x":"4598672","gk4y":"5810577\n"},{"nr":"9051253","name":"Drosselweg","place":"Berlin","lon":"13.287494","lat":"52.461209","gk4x":"4587612","gk4y":"5815001\n"},{"nr":"9195516","name":"Drössestr.","place":"Berlin","lon":"13.559361","lat":"52.415532","gk4x":"4606199","gk4y":"5810283\n"},{"nr":"9085106","name":"Dubliner Str.","place":"Berlin","lon":"13.348365","lat":"52.562266","gk4x":"4591539","gk4y":"5826321\n"},{"nr":"9068102","name":"Dudenstr./Katzbachstr.","place":"Berlin","lon":"13.376781","lat":"52.484936","gk4x":"4593630","gk4y":"5817753\n"},{"nr":"9044206","name":"Durlacher Str.","place":"Berlin","lon":"13.329441","lat":"52.481649","gk4x":"4590421","gk4y":"5817327\n"},{"nr":"9041252","name":"Düsseldorfer Str.","place":"Berlin","lon":"13.311629","lat":"52.496974","gk4x":"4589180","gk4y":"5819010\n"},{"nr":"9027404","name":"Dyrotzer Str.","place":"Berlin","lon":"13.168064","lat":"52.541617","gk4x":"4579350","gk4y":"5823810\n"},{"nr":"9130511","name":"E.-Brändström-Str./Neumannstr.","place":"Berlin","lon":"13.422336","lat":"52.559944","gk4x":"4596560","gk4y":"5826159\n"},{"nr":"9230049","name":"E.-Claudius-Str./Drewitzer Str.","place":"Potsdam","lon":"13.089278","lat":"52.373564","gk4x":"4574287","gk4y":"5805027\n"},{"nr":"9230050","name":"E.-Claudius-Str./H.-Mann-Allee","place":"Potsdam","lon":"13.088299","lat":"52.373195","gk4x":"4574221","gk4y":"5804985\n"},{"nr":"9100532","name":"Ebertstr.","place":"Berlin","lon":"13.377340","lat":"52.514147","gk4x":"4593606","gk4y":"5821004\n"},{"nr":"9037108","name":"Eckenerweg","place":"Berlin","lon":"13.150526","lat":"52.541699","gk4x":"4578160","gk4y":"5823800\n"},{"nr":"9230194","name":"Ecksteinweg","place":"Potsdam","lon":"12.995474","lat":"52.405424","gk4x":"4567850","gk4y":"5808480\n"},{"nr":"9132508","name":"Edelweißstr.","place":"Berlin","lon":"13.368236","lat":"52.586150","gk4x":"4592836","gk4y":"5829004\n"},{"nr":"9067202","name":"Edenkobener Weg","place":"Berlin","lon":"13.351153","lat":"52.439873","gk4x":"4591983","gk4y":"5812706\n"},{"nr":"9079251","name":"Eduard-Müller-Platz","place":"Berlin","lon":"13.436848","lat":"52.467002","gk4x":"4597750","gk4y":"5815837\n"},{"nr":"9058156","name":"Egelingzeile","place":"Berlin","lon":"13.369978","lat":"52.463571","gk4x":"4593213","gk4y":"5815367\n"},{"nr":"9031155","name":"Egelpfuhlstr.","place":"Berlin","lon":"13.170164","lat":"52.533580","gk4x":"4579507","gk4y":"5822918\n"},{"nr":"9074213","name":"Egestorffstr.","place":"Berlin","lon":"13.382002","lat":"52.397904","gk4x":"4594170","gk4y":"5808076\n"},{"nr":"9051355","name":"Ehrenbergstr.","place":"Berlin","lon":"13.290766","lat":"52.448313","gk4x":"4587860","gk4y":"5813570\n"},{"nr":"9131501","name":"Ehrenmal Schönholz","place":"Berlin","lon":"13.376059","lat":"52.579643","gk4x":"4593380","gk4y":"5828290\n"},{"nr":"9230195","name":"Ehrenpfortenbergstr.","place":"Potsdam","lon":"12.986384","lat":"52.404350","gk4x":"4567233","gk4y":"5808352\n"},{"nr":"9086103","name":"Eichborndamm/Antonienstr.","place":"Berlin","lon":"13.312496","lat":"52.571522","gk4x":"4589088","gk4y":"5827306\n"},{"nr":"9191504","name":"Eichbuschallee","place":"Berlin","lon":"13.487381","lat":"52.475724","gk4x":"4601164","gk4y":"5816877\n"},{"nr":"9191005","name":"Eichbuschallee/Köpenicker Landstr.","place":"Berlin","lon":"13.483883","lat":"52.474105","gk4x":"4600930","gk4y":"5816692\n"},{"nr":"9196504","name":"Eichbuschplatz","place":"Berlin","lon":"13.582775","lat":"52.393336","gk4x":"4607846","gk4y":"5807848\n"},{"nr":"9083354","name":"Eichenauer Weg","place":"Berlin","lon":"13.501309","lat":"52.413588","gk4x":"4602254","gk4y":"5809983\n"},{"nr":"9176537","name":"Eichenhofweg","place":"Berlin","lon":"13.607645","lat":"52.490992","gk4x":"4609297","gk4y":"5818751\n"},{"nr":"9230190","name":"Eichenring","place":"Potsdam","lon":"12.989483","lat":"52.410867","gk4x":"4567434","gk4y":"5809080\n"},{"nr":"9175505","name":"Eichenstr.","place":"Berlin","lon":"13.580961","lat":"52.485124","gk4x":"4607499","gk4y":"5818058\n"},{"nr":"9190004","name":"Eichenstr./Puschkinallee","place":"Berlin","lon":"13.453471","lat":"52.494507","gk4x":"4598818","gk4y":"5818920\n"},{"nr":"9183511","name":"Eichenstr./Waldstr.","place":"Berlin","lon":"13.722392","lat":"52.424773","gk4x":"4617266","gk4y":"5811563\n"},{"nr":"9230041","name":"Eichenweg","place":"Potsdam","lon":"13.106326","lat":"52.386482","gk4x":"4575426","gk4y":"5806482\n"},{"nr":"9220137","name":"Eichhörnchenweg","place":"Kleinmachnow","lon":"13.200391","lat":"52.400051","gk4x":"4581805","gk4y":"5808094\n"},{"nr":"9096302","name":"Eichhorster Weg/Finsterwalder Str.","place":"Berlin","lon":"13.341276","lat":"52.600084","gk4x":"4590980","gk4y":"5830520\n"},{"nr":"9160537","name":"Einbecker Str./Rosenfelder Str.","place":"Berlin","lon":"13.503497","lat":"52.509789","gk4x":"4602180","gk4y":"5820690\n"},{"nr":"9080171","name":"Eintrachtsiedlung","place":"Berlin","lon":"13.430639","lat":"52.454333","gk4x":"4597356","gk4y":"5814419\n"},{"nr":"9220354","name":"Eisbergstücke","place":"Potsdam","lon":"13.021497","lat":"52.467644","gk4x":"4569523","gk4y":"5815428\n"},{"nr":"9055106","name":"Eisenacher Str.","place":"Berlin","lon":"13.349179","lat":"52.494583","gk4x":"4591735","gk4y":"5818791\n"},{"nr":"9220851","name":"Eisenbahnbrücke Marquardt","place":"Potsdam","lon":"12.972244","lat":"52.453555","gk4x":"4566197","gk4y":"5813814\n"},{"nr":"9014154","name":"Eisenbahnstr.","place":"Berlin","lon":"13.434934","lat":"52.504475","gk4x":"4597537","gk4y":"5820004\n"},{"nr":"9131500","name":"Eisenblätterstr.","place":"Berlin","lon":"13.374597","lat":"52.582895","gk4x":"4593274","gk4y":"5828650\n"},{"nr":"9041251","name":"Eisenzahnstr.","place":"Berlin","lon":"13.304898","lat":"52.493453","gk4x":"4588730","gk4y":"5818610\n"},{"nr":"9067254","name":"Eiswaldtstr.","place":"Berlin","lon":"13.347044","lat":"52.428578","gk4x":"4591727","gk4y":"5811444\n"},{"nr":"9171523","name":"Eitelstr.","place":"Berlin","lon":"13.557055","lat":"52.525192","gk4x":"4605779","gk4y":"5822481\n"},{"nr":"9210329","name":"Elbeallee","place":"Falkensee","lon":"13.067196","lat":"52.574303","gk4x":"4572453","gk4y":"5827341\n"},{"nr":"9350866","name":"Elbestr.","place":"Bernau","lon":"13.557637","lat":"52.669710","gk4x":"4605471","gk4y":"5838562\n"},{"nr":"9220071","name":"Elbestr.","place":"Teltow","lon":"13.249582","lat":"52.399514","gk4x":"4585154","gk4y":"5808091\n"},{"nr":"9220120","name":"Elbestr./Weserstr.","place":"Teltow","lon":"13.253684","lat":"52.399596","gk4x":"4585433","gk4y":"5808105\n"},{"nr":"9048154","name":"Elgersburger Str.","place":"Berlin","lon":"13.285625","lat":"52.482889","gk4x":"4587442","gk4y":"5817411\n"},{"nr":"9170513","name":"Elisabethstr./Oberfeldstr.","place":"Berlin","lon":"13.559491","lat":"52.534049","gk4x":"4605923","gk4y":"5823470\n"},{"nr":"9171501","name":"Elsenallee","place":"Berlin","lon":"13.560565","lat":"52.488702","gk4x":"4606105","gk4y":"5818426\n"},{"nr":"9076191","name":"Elsenstr.","place":"Berlin","lon":"13.448904","lat":"52.485027","gk4x":"4598529","gk4y":"5817859\n"},{"nr":"9190505","name":"Elsenstr./Kiefholzstr.","place":"Berlin","lon":"13.453554","lat":"52.488547","gk4x":"4598837","gk4y":"5818257\n"},{"nr":"9031152","name":"Elsflether Weg","place":"Berlin","lon":"13.193650","lat":"52.533902","gk4x":"4581100","gk4y":"5822980\n"},{"nr":"9046203","name":"Elsterplatz","place":"Berlin","lon":"13.285354","lat":"52.479647","gk4x":"4587430","gk4y":"5817050\n"},{"nr":"9210111","name":"Elsterplatz","place":"Falkensee","lon":"13.052987","lat":"52.555063","gk4x":"4571521","gk4y":"5825186\n"},{"nr":"9210144","name":"Elsterstr.","place":"Falkensee","lon":"13.076984","lat":"52.555413","gk4x":"4573148","gk4y":"5825249\n"},{"nr":"9032254","name":"Emil-Basdeck-Str.","place":"Berlin","lon":"13.180301","lat":"52.493927","gk4x":"4580267","gk4y":"5818517\n"},{"nr":"9085208","name":"Emmentaler Str./Reginhardstr.","place":"Berlin","lon":"13.365979","lat":"52.572399","gk4x":"4592712","gk4y":"5827471\n"},{"nr":"9067451","name":"Emmichstr.","place":"Berlin","lon":"13.355234","lat":"52.427657","gk4x":"4592286","gk4y":"5811352\n"},{"nr":"9079253","name":"Emser Str.","place":"Berlin","lon":"13.435797","lat":"52.469072","gk4x":"4597674","gk4y":"5816066\n"},{"nr":"9066353","name":"Engadiner Weg","place":"Berlin","lon":"13.302843","lat":"52.425424","gk4x":"4588727","gk4y":"5811038\n"},{"nr":"9194516","name":"Engelhardstr./Pilotenstr.","place":"Berlin","lon":"13.511136","lat":"52.446914","gk4x":"4602845","gk4y":"5813705\n"},{"nr":"9096352","name":"Engelroder Weg","place":"Berlin","lon":"13.347397","lat":"52.602351","gk4x":"4591390","gk4y":"5830780\n"},{"nr":"9092253","name":"Enkircher Str.","place":"Berlin","lon":"13.306175","lat":"52.630762","gk4x":"4588540","gk4y":"5833890\n"},{"nr":"9220033","name":"Enzianweg","place":"Stahnsdorf","lon":"13.238516","lat":"52.385269","gk4x":"4584428","gk4y":"5806493\n"},{"nr":"9022151","name":"Eosanderstr.","place":"Berlin","lon":"13.304013","lat":"52.518268","gk4x":"4588620","gk4y":"5821370\n"},{"nr":"9048110","name":"Erdener Str.","place":"Berlin","lon":"13.275915","lat":"52.490211","gk4x":"4586768","gk4y":"5818214\n"},{"nr":"9058155","name":"Eresburgstr.","place":"Berlin","lon":"13.370269","lat":"52.466803","gk4x":"4593226","gk4y":"5815727\n"},{"nr":"9170537","name":"Erholungspark Marzahn","place":"Berlin","lon":"13.576775","lat":"52.540111","gk4x":"4607081","gk4y":"5824170\n"},{"nr":"9176534","name":"Erich-Baron-Weg","place":"Berlin","lon":"13.602204","lat":"52.483480","gk4x":"4608946","gk4y":"5817907\n"},{"nr":"9110509","name":"Erich-Weinert-Str.","place":"Berlin","lon":"13.428666","lat":"52.547780","gk4x":"4597016","gk4y":"5824814\n"},{"nr":"9161518","name":"Erieseering","place":"Berlin","lon":"13.519279","lat":"52.494596","gk4x":"4603287","gk4y":"5819022\n"},{"nr":"9075101","name":"Erkstr.","place":"Berlin","lon":"13.440079","lat":"52.481675","gk4x":"4597937","gk4y":"5817474\n"},{"nr":"9220039","name":"Ernst-Schneller-Str.","place":"Teltow","lon":"13.276522","lat":"52.391650","gk4x":"4587003","gk4y":"5807248\n"},{"nr":"9180527","name":"Erwin-Bock-Str.","place":"Berlin","lon":"13.599453","lat":"52.441761","gk4x":"4608862","gk4y":"5813261\n"},{"nr":"9089304","name":"Eschachstr./S Tegel","place":"Berlin","lon":"13.289848","lat":"52.590365","gk4x":"4587515","gk4y":"5829375\n"},{"nr":"9027260","name":"Eschenweg","place":"Berlin","lon":"13.210171","lat":"52.567651","gk4x":"4582158","gk4y":"5826754\n"},{"nr":"9069208","name":"Eschersheimer Str.","place":"Berlin","lon":"13.421471","lat":"52.465192","gk4x":"4596709","gk4y":"5815615\n"},{"nr":"9210146","name":"Essener Str.","place":"Falkensee","lon":"13.114219","lat":"52.553837","gk4x":"4575676","gk4y":"5825112\n"},{"nr":"9023204","name":"Europa-Center","place":"Berlin","lon":"13.337256","lat":"52.503930","gk4x":"4590906","gk4y":"5819816\n"},{"nr":"9220085","name":"Ev. Diakonissenhaus","place":"Teltow","lon":"13.278195","lat":"52.403791","gk4x":"4587093","gk4y":"5808601\n"},{"nr":"9160520","name":"Ev. Krankenhaus KEH","place":"Berlin","lon":"13.508646","lat":"52.525478","gk4x":"4602493","gk4y":"5822443\n"},{"nr":"9009252","name":"Exerzierstr.","place":"Berlin","lon":"13.371704","lat":"52.554017","gk4x":"4593139","gk4y":"5825433\n"},{"nr":"9220335","name":"F.-Günther-Park","place":"Potsdam","lon":"13.105591","lat":"52.458701","gk4x":"4575253","gk4y":"5814517\n"},{"nr":"9066106","name":"Fabeckstr.","place":"Berlin","lon":"13.300172","lat":"52.448066","gk4x":"4588500","gk4y":"5813554\n"},{"nr":"9037156","name":"Fachinger Str.","place":"Berlin","lon":"13.132577","lat":"52.540740","gk4x":"4576944","gk4y":"5823674\n"},{"nr":"9142506","name":"Fafnerstr.","place":"Berlin","lon":"13.445165","lat":"52.581479","gk4x":"4598060","gk4y":"5828586\n"},{"nr":"9183005","name":"Fahlenbergstr.","place":"Berlin","lon":"13.719898","lat":"52.431325","gk4x":"4617079","gk4y":"5812288\n"},{"nr":"9185002","name":"Fährallee","place":"Berlin","lon":"13.645420","lat":"52.347568","gk4x":"4612226","gk4y":"5802851\n"},{"nr":"9220311","name":"Fahrländer See","place":"Potsdam","lon":"13.032371","lat":"52.461340","gk4x":"4570272","gk4y":"5814737\n"},{"nr":"9220854","name":"Fährweg","place":"Potsdam","lon":"12.954328","lat":"52.472654","gk4x":"4564951","gk4y":"5815923\n"},{"nr":"9014155","name":"Falckensteinstr.","place":"Berlin","lon":"13.443949","lat":"52.500052","gk4x":"4598159","gk4y":"5819524\n"},{"nr":"9152007","name":"Falkenberg","place":"Berlin","lon":"13.526819","lat":"52.570209","gk4x":"4603621","gk4y":"5827446\n"},{"nr":"9153504","name":"Falkenberg/Dorfstr.","place":"Berlin","lon":"13.536835","lat":"52.570205","gk4x":"4604300","gk4y":"5827460\n"},{"nr":"9152006","name":"Falkenberger Ch./Prendener Str.","place":"Berlin","lon":"13.520673","lat":"52.568634","gk4x":"4603208","gk4y":"5827262\n"},{"nr":"9140012","name":"Falkenberger Str./Berliner Allee","place":"Berlin","lon":"13.467743","lat":"52.554707","gk4x":"4599651","gk4y":"5825638\n"},{"nr":"9027455","name":"Falkenhagener Tor","place":"Berlin","lon":"13.190259","lat":"52.550203","gk4x":"4580840","gk4y":"5824790\n"},{"nr":"9230100","name":"Falkenhorst","place":"Potsdam","lon":"13.090098","lat":"52.381231","gk4x":"4574330","gk4y":"5805881\n"},{"nr":"9090101","name":"Falkenplatz","place":"Berlin","lon":"13.227150","lat":"52.584651","gk4x":"4583277","gk4y":"5828665\n"},{"nr":"9027302","name":"Falkenseer Chaussee/Stadtrandstr.","place":"Berlin","lon":"13.153634","lat":"52.553441","gk4x":"4578350","gk4y":"5825110\n"},{"nr":"9027401","name":"Falkenseer Chaussee/Zeppelinstr.","place":"Berlin","lon":"13.184733","lat":"52.547562","gk4x":"4580470","gk4y":"5824490\n"},{"nr":"9029103","name":"Falkenseer Platz","place":"Berlin","lon":"13.201979","lat":"52.540989","gk4x":"4581652","gk4y":"5823778\n"},{"nr":"9210155","name":"Falkenstr./Coburger Str.","place":"Falkensee","lon":"13.072692","lat":"52.562570","gk4x":"4572845","gk4y":"5826041\n"},{"nr":"9160526","name":"Fanningerstr.","place":"Berlin","lon":"13.498278","lat":"52.514394","gk4x":"4601815","gk4y":"5821195\n"},{"nr":"9350139","name":"Fasanenstr.","place":"Ahrensfelde","lon":"13.582680","lat":"52.578426","gk4x":"4607388","gk4y":"5828442\n"},{"nr":"9220013","name":"Fasanenstr.","place":"Stahnsdorf","lon":"13.195172","lat":"52.380404","gk4x":"4581486","gk4y":"5805902\n"},{"nr":"9220139","name":"Fashion-Park","place":"Kleinmachnow","lon":"13.191576","lat":"52.401174","gk4x":"4581203","gk4y":"5808209\n"},{"nr":"9043151","name":"Fechnerstr.","place":"Berlin","lon":"13.322877","lat":"52.489551","gk4x":"4589959","gk4y":"5818198\n"},{"nr":"9210129","name":"Fehrbelliner Str.","place":"Falkensee","lon":"13.086585","lat":"52.572769","gk4x":"4573770","gk4y":"5827190\n"},{"nr":"9161008","name":"Feierabendheim","place":"Berlin","lon":"13.532626","lat":"52.511275","gk4x":"4604154","gk4y":"5820897\n"},{"nr":"9350145","name":"Feldstr.","place":"Ahrensfelde","lon":"13.574521","lat":"52.574302","gk4x":"4606845","gk4y":"5827971\n"},{"nr":"9064257","name":"Feldstr.","place":"Berlin","lon":"13.303541","lat":"52.415692","gk4x":"4588794","gk4y":"5809956\n"},{"nr":"9150501","name":"Feldtmannstr.","place":"Berlin","lon":"13.495328","lat":"52.559826","gk4x":"4601510","gk4y":"5826246\n"},{"nr":"9068251","name":"Felixstr.","place":"Berlin","lon":"13.394597","lat":"52.465512","gk4x":"4594882","gk4y":"5815615\n"},{"nr":"9001200","name":"Fennbrücke","place":"Berlin","lon":"13.360958","lat":"52.538396","gk4x":"4592443","gk4y":"5823681\n"},{"nr":"9037167","name":"Ferbitzer Weg","place":"Berlin","lon":"13.128911","lat":"52.544369","gk4x":"4576689","gk4y":"5824074\n"},{"nr":"9049150","name":"Fercher Str.","place":"Berlin","lon":"13.234319","lat":"52.423302","gk4x":"4584070","gk4y":"5810720\n"},{"nr":"9210361","name":"Feuerbachstr.","place":"Falkensee","lon":"13.044271","lat":"52.565547","gk4x":"4570913","gk4y":"5826344\n"},{"nr":"9230210","name":"Feuerbachstr.","place":"Potsdam","lon":"13.042665","lat":"52.396354","gk4x":"4571076","gk4y":"5807516\n"},{"nr":"9175501","name":"Feuersteiner Str.","place":"Berlin","lon":"13.569215","lat":"52.476077","gk4x":"4606723","gk4y":"5817034\n"},{"nr":"9220096","name":"Feuerwehr","place":"Teltow","lon":"13.238829","lat":"52.394873","gk4x":"4584431","gk4y":"5807562\n"},{"nr":"9016251","name":"Fichtestr.","place":"Berlin","lon":"13.412987","lat":"52.488338","gk4x":"4596082","gk4y":"5818179\n"},{"nr":"9063100","name":"Filandastr.","place":"Berlin","lon":"13.331661","lat":"52.458194","gk4x":"4590620","gk4y":"5814720\n"},{"nr":"9180507","name":"Filehner Str.","place":"Berlin","lon":"13.578938","lat":"52.465234","gk4x":"4607410","gk4y":"5815842\n"},